codigo_escola;codigo_escola_mec;nome_escola;distrito;bairro;municipio;diretoria;localizacao;cep;latitude;longitude;nivel_socioeconomico;tratamento_cmsp;tratamento_cmsp_periodo;tratamento_cmsp_intensidade;ano_primeiro_cmsp_real;g_cmsp;grupo_cmsp
10005;35010005;JOAO BAPTISTA DE OLIVEIRA;ITAPECERICA DA SERRA;CENTRO;ITAPECERICA DA SERRA;ITAPECERICA DA SERRA;Urbana;6850050;-23.71507072;-46.85181046;5,5;1;2020-05-27;156488150;2020;2021;tratada_cmsp
100110;35100110;ALDEIA KOPENOTI;NOGUEIRA;AREA RURAL DE NOGUEIRA;AVAI;BAURU;Rural;16689899;-23.55051994;-46.63330841;;1;2021-03-04;25895;2021;2021;tratada_cmsp
100146;35100146;ALDEIA NIMUENDAJU;AVAI;ALDEIA NIMUENDAJU;AVAI;BAURU;Rural;16680000;-22.29116058;-49.37730026;;1;2020-05-28;850138;2020;2021;tratada_cmsp
10017;35010017;MARIANINHA QUEIROZ PROFESSORA;SAO LOURENCO DA SERRA;CENTRO;SAO LOURENCO DA SERRA;ITAPECERICA DA SERRA;Urbana;6890000;-23.85280037;-46.94369888;5,07;1;2020-05-27;252250912;2020;2021;tratada_cmsp
100195;35100195;ALDEIA EKERUA;AVAI;ALDEIA EKERUA;AVAI;BAURU;Rural;16680000;-22.2747097;-49.37297058;;1;2021-09-26;39010;2021;2021;tratada_cmsp
100201;35100201;ALDEIA RENASCER;UBATUBA;CORCOVADO;UBATUBA;CARAGUATATUBA;Urbana;11682520;-23.47613907;-45.19160843;;1;2021-02-01;293694;2021;2021;tratada_cmsp
100225;35100225;ALDEIA PARAISO;IGUAPE;ITINGA GRANDE;IGUAPE;MIRACATU;Rural;11920000;-24.50823975;-47.5275383;;0;;0;;0;nunca_tratada_cmsp
100249;35100249;ALDEIA CAPOEIRAO;ITARIRI;KM 93;ITARIRI;MIRACATU;Rural;11760000;-24.30809021;-47.11671829;;0;;0;;0;nunca_tratada_cmsp
100262;35100262;ALDEIA RIO DO AZEITE;ITARIRI;RIO DO AZEITE;ITARIRI;MIRACATU;Rural;11760000;-24.33348083;-47.17166138;;0;;0;;0;nunca_tratada_cmsp
10029;35010029;ANGENOR DE OLIVEIRA POETA;ITAPECERICA DA SERRA;DA LAGOA;ITAPECERICA DA SERRA;ITAPECERICA DA SERRA;Urbana;6860400;-23.71953964;-46.82151031;5,14;1;2020-05-27;52551172;2020;2021;tratada_cmsp
10030;35010030;ODETTE DE SOUZA CARVALHO MADRE;EMBU DAS ARTES;CHACARAS ANA LUCIA;EMBU DAS ARTES;TABOAO DA SERRA;Urbana;6840000;-23.65012932;-46.85887909;5,61;1;2020-05-27;276363494;2020;2021;tratada_cmsp
100341;35100341;ALDEIA TEREGUA;AVAI;LARANJEIRAS;AVAI;BAURU;Rural;16680000;-22.16006088;-49.38312149;;0;;0;;0;nunca_tratada_cmsp
100389;35100389;ALDEIA SANTA CRUZ;CANANEIA;ILHA DO CARDOSO;CANANEIA;REGISTRO;Rural;11990000;-25.1335907;-47.9416008;;0;;0;;0;nunca_tratada_cmsp
1004;35001004;EURICO FIGUEIREDO PROF;JACANA;JACANA;SAO PAULO;NORTE 2;Urbana;2272030;-23.47019958;-46.58660126;5,22;1;2020-05-27;96072551;2020;2021;tratada_cmsp
100407;35100407;ALDEIA RIO BRANCO II;CANANEIA;RIO BRANCO II;CANANEIA;REGISTRO;Rural;11990000;-25.03256035;-48.04067993;;0;;0;;0;nunca_tratada_cmsp
10042;35010042;BRASILINA VALENTE;EMBU DAS ARTES;JARDIM CASTILHO;EMBU DAS ARTES;TABOAO DA SERRA;Urbana;6810000;-23.64369965;-46.80799866;5,08;1;2020-05-27;70518697;2020;2021;tratada_cmsp
10045;35010045;TERRA BRASILIS;ITUPEVA;PARQUE RESIDENCIAL PARAISO;ITUPEVA;JUNDIAI;Urbana;13295374;-23.15010071;-47.04042053;;0;;0;;0;nunca_tratada_cmsp
10054;35010054;MARIA ANTONIETA MARTINS DE ALMEIDA PROFESSORA;EMBU DAS ARTES;JARDIM PINHEIRINHO;EMBU DAS ARTES;TABOAO DA SERRA;Urbana;6835130;-23.67910004;-46.85599899;5,03;1;2020-05-27;57908674;2020;2021;tratada_cmsp
10066;35010066;SOLANO TRINDADE;EMBU DAS ARTES;JARDIM SANTA TEREZA;EMBU DAS ARTES;TABOAO DA SERRA;Urbana;6813400;-23.65213966;-46.80908966;4,98;1;2020-05-27;29748678;2020;2021;tratada_cmsp
10069;35010069;ESCOLA ESTADUAL BAIRRO BEXIGA;ILHABELA;BEXIGA;ILHABELA;CARAGUATATUBA;Urbana;11630000;-23.86418915;-45.42087173;;0;;0;;0;nunca_tratada_cmsp
10078;35010078;ELIZETE DE OLIVEIRA BERTINI;EMBU DAS ARTES;JARDIM DOM JOSE;EMBU DAS ARTES;TABOAO DA SERRA;Urbana;6823300;-23.67453003;-46.80381012;5,11;1;2020-05-27;63667650;2020;2021;tratada_cmsp
10091;35010091;PAULO CHAGAS NOGUEIRA ENGENHEIRO;EMBU DAS ARTES;PARQUE PIRAJUSSARA;EMBU DAS ARTES;TABOAO DA SERRA;Urbana;6815000;-23.65579987;-46.81480026;5,06;1;2020-05-27;92146648;2020;2021;tratada_cmsp
100948;35100948;ALDEIA RIO BRANCO;ITANHAEM;RIO BRANCO;ITANHAEM;SAO VICENTE;Rural;11740000;-24.14668083;-46.80730057;;0;;0;;0;nunca_tratada_cmsp
10121;35010121;EULALIA MALTA PROFESSORA;EMBU DAS ARTES;JARDIM ARABUTA;EMBU DAS ARTES;TABOAO DA SERRA;Urbana;6803460;-23.65378952;-46.85639191;5,25;1;2020-05-27;244538862;2020;2021;tratada_cmsp
10133;35010133;MARIA AUXILIADORA;EMBU DAS ARTES;CENTRO;EMBU DAS ARTES;TABOAO DA SERRA;Urbana;6803470;-23.65379906;-46.85079956;5,21;1;2020-05-27;148055280;2020;2021;tratada_cmsp
10145;35010145;IRIA KUNZ IRMA;EMBU DAS ARTES;JARDIM PRESIDENTE KENNEDY;EMBU DAS ARTES;TABOAO DA SERRA;Urbana;6820200;-23.66049957;-46.7969017;5,09;1;2020-05-27;128686586;2020;2021;tratada_cmsp
10157;35010157;OREDO RODRIGUES DA CRUZ;JUQUITIBA;CENTRO;JUQUITIBA;ITAPECERICA DA SERRA;Urbana;6950000;-23.92980003;-47.07180023;4,88;1;2020-05-27;154175862;2020;2021;tratada_cmsp
1016;35001016;ALBERTO CARDOSO DE MELLO NETO DR;TUCURUVI;JARDIM LEONOR MENDES DE BARROS;SAO PAULO;NORTE 2;Urbana;2346000;-23.46439934;-46.604599;5,15;1;2020-05-27;212873164;2020;2021;tratada_cmsp
10169;35010169;LAURITA ORTEGA MARI;TABOAO DA SERRA;JARDIM CLEMENTINO;TABOAO DA SERRA;TABOAO DA SERRA;Urbana;6770080;-23.63459969;-46.78590012;4,99;1;2020-05-27;84111129;2020;2021;tratada_cmsp
10170;35010170;JULIETA CALDAS FERRAZ PROFESSORA;TABOAO DA SERRA;JARDIM MONTE ALEGRE;TABOAO DA SERRA;TABOAO DA SERRA;Urbana;6755320;-23.60037041;-46.76758957;5,45;1;2020-05-27;88348799;2020;2021;tratada_cmsp
10182;35010182;ANTONIO RUY CARDOSO PROFESSOR;TABOAO DA SERRA;JARDIM SALETE;TABOAO DA SERRA;TABOAO DA SERRA;Urbana;6787320;-23.62352943;-46.79743958;5,11;1;2020-05-27;140325521;2020;2021;tratada_cmsp
10188;35010188;CENTRO DE DETENCAO PROVISORIA DE AGUAI;AGUAI;RURAL;AGUAI;SAO JOAO DA BOA VISTA;Rural;13860000;-22.01329994;-47.03810883;;0;;0;;0;nunca_tratada_cmsp
10194;35010194;ALIPIO DE OLIVEIRA E SILVA PROFESSOR;TABOAO DA SERRA;JARDIM SANTA ROSA;TABOAO DA SERRA;TABOAO DA SERRA;Urbana;6755025;-23.59988976;-46.76330185;5,26;1;2020-05-27;169072544;2020;2021;tratada_cmsp
10198;35010198;CENTRO DE DETENCAO PROVISORIA IV – PINHEIROS;VILA LEOPOLDINA;VILA LEOPOLDINA;SAO PAULO;CENTRO OESTE;Urbana;5310000;-23.53255081;-46.74633026;;0;;0;;0;nunca_tratada_cmsp
10236;35010236;REYNALDO DO NASCIMENTO FALLEIROS DOUTOR;TABOAO DA SERRA;JARDIM SAO SALVADOR;TABOAO DA SERRA;TABOAO DA SERRA;Urbana;6775350;-23.63920021;-46.79809952;4,92;1;2020-05-27;76197544;2020;2021;tratada_cmsp
10248;35010248;JOAO CALY PROFESSOR;TABOAO DA SERRA;CIDADE INTERCAP;TABOAO DA SERRA;TABOAO DA SERRA;Urbana;6757030;-23.60956001;-46.7780304;5,17;1;2020-05-27;122862528;2020;2021;tratada_cmsp
102556;35102556;CENTRO DE RESSOCIALIZACAO DE LIMEIRA CLASSES PROVISORIAS;LIMEIRA;HORTO FLORESTAL;LIMEIRA;LIMEIRA;Urbana;13480970;-22.56776619;-47.3515358;;1;2021-02-10;786950;2021;2021;tratada_cmsp
10259;35010259;ANTONIO INACIO MACIEL;TABOAO DA SERRA;JARDIM MARIA ROSA;TABOAO DA SERRA;TABOAO DA SERRA;Urbana;6763270;-23.61157036;-46.76121902;5,62;1;2020-05-27;196429824;2020;2021;tratada_cmsp
10261;35010261;ALMIR PEREIRA BAHIA REVERENDO;TABOAO DA SERRA;PARQUE INDUSTRIAL DACI;TABOAO DA SERRA;TABOAO DA SERRA;Urbana;6785300;-23.64061928;-46.80727005;5,31;1;2020-05-27;316238385;2020;2021;tratada_cmsp
10273;35010273;MARIA ANDRE SCHUNCK DONA;EMBU-GUACU;CENTROCIPO;EMBU-GUACU;ITAPECERICA DA SERRA;Urbana;6929050;-23.87845993;-46.79201889;5,2;1;2020-05-27;82286570;2020;2021;tratada_cmsp
1028;35001028;VICTOR DOS SANTOS CUNHA PROF;VILA MEDEIROS;VILA SABRINA;SAO PAULO;NORTE 2;Urbana;2141000;-23.49150085;-46.57130051;5,05;1;2020-05-27;130005204;2020;2021;tratada_cmsp
10285;35010285;PASCHOAL CARLOS MAGNO;EMBU-GUACU;JARDIM EMILIA;EMBU-GUACU;ITAPECERICA DA SERRA;Urbana;6900445;-23.83088684;-46.81207657;5,28;1;2020-05-27;234075448;2020;2021;tratada_cmsp
10297;35010297;ZEICY APPARECIDA NOGUEIRA BAPTISTA PROFESSORA;TABOAO DA SERRA;JARDIM OLIVEIRAS;TABOAO DA SERRA;TABOAO DA SERRA;Urbana;6765100;-23.62249947;-46.77149963;5,28;1;2020-05-27;139700619;2020;2021;tratada_cmsp
103;35000103;JOAO BOEMER JARDIM PROFESSOR;BRASILANDIA;JARDIM ONDINA;SAO PAULO;NORTE 1;Urbana;2871040;-23.46120071;-46.67359924;5,05;1;2020-05-27;31449003;2020;2021;tratada_cmsp
103100;35103100;KRUKUTU;PARELHEIROS;BARRAGEM;SAO PAULO;SUL 3;Urbana;4895000;-23.86470985;-46.62084961;;0;;0;;0;nunca_tratada_cmsp
10315;35010315;IRACEMA BELLO ORICCHIO DOUTORA;EMBU DAS ARTES;CHACARAS BARTIRA;EMBU DAS ARTES;TABOAO DA SERRA;Urbana;6845070;-23.64314079;-46.89987183;5,41;1;2020-05-27;43866001;2020;2021;tratada_cmsp
10323;35010323;CEEJA DE ITAPECERICA DA SERRA;ITAPECERICA DA SERRA;PARQUE PARAISO;ITAPECERICA DA SERRA;ITAPECERICA DA SERRA;Urbana;6852220;-23.70849037;-46.85774994;;0;;0;;0;nunca_tratada_cmsp
10327;35010327;JULIA DE CASTRO CARNEIRO;ITAPECERICA DA SERRA;CIDADE SANTA JULIA;ITAPECERICA DA SERRA;ITAPECERICA DA SERRA;Urbana;6866500;-23.75678062;-46.80680847;5,09;1;2020-05-27;235498362;2020;2021;tratada_cmsp
10330;35010330;JARDIM PARAISO;BOITUVA;JARDIM PARAISO;BOITUVA;ITU;Urbana;18558056;-23.26361084;-47.67684174;;0;;0;;0;nunca_tratada_cmsp
10347;35010347;CEL EE RACHID JABUR;CANDIDO MOTA;CENTRO;CANDIDO MOTA;ASSIS;Urbana;19880063;-22.74072456;-50.39132309;;0;;0;;0;nunca_tratada_cmsp
10352;35010352;WANDYCK FREITAS JORNALISTA;TABOAO DA SERRA;PARQUE ASSUNCAO;TABOAO DA SERRA;TABOAO DA SERRA;Urbana;6754160;-23.60499954;-46.76229858;5,7;1;2020-05-27;155303972;2020;2021;tratada_cmsp
1036;35001036;SEBASTIAO DE SOUZA BUENO PROF;VILA MEDEIROS;VILA MEDEIROS;SAO PAULO;NORTE 2;Urbana;2214030;-23.49230003;-46.58599854;5,11;1;2020-05-27;85898805;2020;2021;tratada_cmsp
10364;35010364;DORVALINO ABILIO TEIXEIRA;JANDIRA;JARDIM SANTO ANTONIO;JANDIRA;ITAPEVI;Urbana;6608000;-23.53790092;-46.91059875;5,2;1;2020-05-27;153538629;2020;2021;tratada_cmsp
10376;35010376;MARIA CRISTINA LOPES;JANDIRA;JARDIM ALVORADA;JANDIRA;ITAPEVI;Urbana;6612220;-23.52169991;-46.92210007;4,85;1;2020-05-27;97205005;2020;2021;tratada_cmsp
10388;35010388;JOSE CHALUPPE;ITAPEVI;VILA SAO FRANCISCO;ITAPEVI;ITAPEVI;Urbana;6654100;-23.54109955;-46.92850113;5,28;1;2020-05-27;298224556;2020;2021;tratada_cmsp
10397;35010397;VICENTE THEMUDO LESSA PROFESSOR;JANDIRA;CENTRO;JANDIRA;ITAPEVI;Urbana;6600020;-23.52776909;-46.90153122;5,35;1;2020-05-27;262885110;2020;2021;tratada_cmsp
10406;35010406;VALENCIO SOARES RODRIGUES;VARGEM GRANDE PAULISTA;JARDIM OLIMPIA;VARGEM GRANDE PAULISTA;SAO ROQUE;Urbana;6730000;-23.60350037;-47.02378845;5,28;1;2020-05-27;64006542;2020;2021;tratada_cmsp
1041;35001041;JOHANN GUTENBERG;JACANA;PARQUE EDU CHAVES;SAO PAULO;NORTE 2;Urbana;2232050;-23.47360039;-46.56330109;5,07;1;2020-05-27;9475380;2020;2021;tratada_cmsp
10424;35010424;CELINA DE BARROS BAIRAO PROFESSORA;ITAPEVI;VILA DOUTOR CARDOSO;ITAPEVI;ITAPEVI;Urbana;6654440;-23.53524017;-46.92118073;5,12;1;2020-05-27;324075816;2020;2021;tratada_cmsp
10431;35010431;AMERICO VALENTIN CHRISTIANINI;ITAPEVI;JARDIM SANTA RITA;ITAPEVI;ITAPEVI;Urbana;6660150;-23.54776955;-46.95024109;5,06;1;2020-05-27;138446318;2020;2021;tratada_cmsp
10443;35010443;NACIF AMIN CHALUPE;ITAPEVI;VILA SANTA FLORA;ITAPEVI;ITAPEVI;Urbana;6683000;-23.54067993;-46.96797943;4,99;1;2020-05-27;99300249;2020;2021;tratada_cmsp
10467;35010467;RAUL BRIQUET DOUTOR;ITAPEVI;CENTRO;ITAPEVI;ITAPEVI;Urbana;6653050;-23.54649925;-46.93289948;5,27;1;2020-05-27;217147464;2020;2021;tratada_cmsp
10470;35010470;EE BAIRRO LUIZ SPINA;BARRETOS;NADIR KENAN;BARRETOS;BARRETOS;Urbana;14784271;-20.58371925;-48.56093979;;0;;0;;0;nunca_tratada_cmsp
10479;35010479;CLARO CAMARGO RIBEIRO;ITAPEVI;AMADOR BUENO;ITAPEVI;ITAPEVI;Urbana;6680420;-23.53249931;-46.98249817;4,99;1;2020-05-27;127680828;2020;2021;tratada_cmsp
10480;35010480;DIMARAES ANTONIO SANDEI PROFESSOR;ITAPEVI;JARDIM PORTELA;ITAPEVI;ITAPEVI;Urbana;6694090;-23.5428009;-46.9394989;5,13;1;2020-05-27;164624165;2020;2021;tratada_cmsp
10492;35010492;VINICIUS DE MORAES;COTIA;GRANJA VIANA;COTIA;CARAPICUIBA;Urbana;6709015;-23.59285927;-46.83675003;5,57;1;2020-05-27;61126746;2020;2021;tratada_cmsp
10506;35010506;CENTRO ATEND SOCIOED ADOLESCENTE CENTRO DE INTERNACAO PROVISORIA CANDIDO PORTINARI CIP;RIBEIRAO PRETO;JARDIM ITAU;RIBEIRAO PRETO;RIBEIRAO PRETO;Urbana;14034000;-21.18792915;-47.86426926;;0;;0;;0;nunca_tratada_cmsp
10509;35010509;FERNANDO NOBRE;COTIA;JARDIM GUERREIRO;COTIA;CARAPICUIBA;Urbana;6710530;-23.59107971;-46.81620026;5,47;1;2020-05-27;102292359;2020;2021;tratada_cmsp
10510;35010510;CARLOS FERREIRA DE MORAES PROFESSOR;COTIA;JARDIM TORINO;COTIA;CARAPICUIBA;Urbana;6713100;-23.6026658;-46.855783;5,33;1;2020-05-27;65106272;2020;2021;tratada_cmsp
10522;35010522;ANTONIETA DI LASCIO OZEKI PROFESSORA;COTIA;PAISAGEM RENOIR;COTIA;CARAPICUIBA;Urbana;6715350;-23.60160065;-46.87540054;4,93;1;2020-05-27;62654537;2020;2021;tratada_cmsp
1053;35001053;LUIZ AMARAL WAGNER PROF;JACANA;VILA CONSTANCA;SAO PAULO;NORTE 2;Urbana;2257000;-23.4734993;-46.58110046;4,93;1;2020-05-28;17103819;2020;2021;tratada_cmsp
10534;35010534;ORLANDO ELLERO PROFESSOR;VARGEM GRANDE PAULISTA;SAO JUDAS TADEU;VARGEM GRANDE PAULISTA;SAO ROQUE;Urbana;6730000;-23.61289978;-47.00679016;5,36;1;2020-05-27;44310857;2020;2021;tratada_cmsp
10546;35010546;JARDIM SANTA ANGELA;COTIA;GRANJA VIANA;COTIA;CARAPICUIBA;Urbana;6709320;-23.58625031;-46.82003021;4,92;1;2020-05-27;58529641;2020;2021;tratada_cmsp
10558;35010558;IDOMINEU ANTUNES CALDEIRA;COTIA;PARQUE BAHIA;COTIA;CARAPICUIBA;Urbana;6717100;-23.60445976;-46.9107399;5,34;1;2020-05-27;230238102;2020;2021;tratada_cmsp
10560;35010560;ESCOLA ESTADUAL DE JURUPEMA;JURUPEMA;CENTRO;TAQUARITINGA;TAQUARITINGA;Urbana;15909021;-21.36602974;-48.56953812;;0;;0;;0;nunca_tratada_cmsp
10561;35010561;ZACARIAS ANTONIO DA SILVA;COTIA;PARQUE BAHIA;COTIA;CARAPICUIBA;Urbana;6717100;-23.60741997;-46.91983032;5,17;1;2020-05-27;265477286;2020;2021;tratada_cmsp
10571;35010571;JOSE BARRETO PROFESSOR;COTIA;JARDIM ISIS;COTIA;CARAPICUIBA;Urbana;6719500;-23.64736938;-46.95837021;5,34;1;2020-05-27;60884964;2020;2021;tratada_cmsp
10583;35010583;ODAIR PACHECO PEDROSO PROFESSOR;COTIA;PARQUE SANTA RITA DE CASSIA;COTIA;CARAPICUIBA;Urbana;6700625;-23.60713005;-46.94298935;5,21;1;2020-05-27;127725321;2020;2021;tratada_cmsp
10595;35010595;BATISTA CEPELOS;COTIA;VILA MONTE SERRAT;COTIA;CARAPICUIBA;Urbana;6717210;-23.60697937;-46.92604828;5,2;1;2020-05-27;205326628;2020;2021;tratada_cmsp
10598;35010598;PARK RESIDENCIAL COLINAS;VOTUPORANGA;PARK RESIDENCIAL COLINAS;VOTUPORANGA;VOTUPORANGA;Urbana;15503364;-20.38920021;-49.97066879;;0;;0;;0;nunca_tratada_cmsp
10601;35010601;ROQUE CELESTINO PIRES;CAUCAIA DO ALTO;CENTRO CAUCAIA DO ALTO;COTIA;CARAPICUIBA;Urbana;6725110;-23.68460083;-47.02210999;5,22;1;2020-05-27;445343424;2020;2021;tratada_cmsp
10613;35010613;CANDIDO RONDON MARECHAL;ITAPEVI;VILA AURORA;ITAPEVI;ITAPEVI;Urbana;6657000;-23.5522995;-46.93629837;5,09;1;2020-05-27;164915403;2020;2021;tratada_cmsp
10625;35010625;ANA MACIEIRA DE OLIVEIRA;COTIA;PEDRAS;COTIA;CARAPICUIBA;Urbana;6720480;-23.6199398;-46.97570038;5,52;1;2020-05-27;60823411;2020;2021;tratada_cmsp
10626;35010626;CIDADE JULIA II;CIDADE ADEMAR;CIDADE JULIA;SAO PAULO;SUL 1;Urbana;4425000;-23.68997002;-46.64484024;;0;;0;;0;nunca_tratada_cmsp
10637;35010637;PAULO SOARES DA SILVA;VARGEM GRANDE PAULISTA;TIJUCO PRETO;VARGEM GRANDE PAULISTA;SAO ROQUE;Urbana;6730000;-23.63879967;-46.99250031;5,45;1;2020-05-27;146459152;2020;2021;tratada_cmsp
10641;35010641;PROFESSORA VILMA FERRARI;PIRACICABA;VALE DO SOL;PIRACICABA;PIRACICABA;Urbana;13406360;-22.68075943;-47.7135582;;0;;0;;0;nunca_tratada_cmsp
10649;35010649;HENRIQUE SAMMARTINO ALFERES;JANDIRA;JARDIM ROSA EMILIA;JANDIRA;ITAPEVI;Urbana;6608430;-23.53035927;-46.91865158;5,12;1;2020-05-27;133041140;2020;2021;tratada_cmsp
1065;35001065;DAVID EUGENIO DOS SANTOS PROF;VILA MEDEIROS;VILA MEDEIROS;SAO PAULO;NORTE 2;Urbana;2204001;-23.48358917;-46.58982086;5,29;1;2020-05-27;35687870;2020;2021;tratada_cmsp
10650;35010650;JOSE NEYDE CESAR LESSA DOUTOR;ITAPEVI;NOVA ITAPEVI;ITAPEVI;ITAPEVI;Urbana;6694000;-23.53779984;-46.93899918;5,31;1;2020-05-27;213451405;2020;2021;tratada_cmsp
10662;35010662;OSWALDO SAMMARTINO;JANDIRA;VILA ANITA COSTA;JANDIRA;ITAPEVI;Urbana;6600170;-23.53502083;-46.90097046;5,11;1;2020-05-27;54833835;2020;2021;tratada_cmsp
10674;35010674;ELOI LACERDA PROF;OSASCO;PIRATININGA;OSASCO;OSASCO;Urbana;6233120;-23.51951027;-46.79216003;4,82;1;2020-05-27;58099208;2020;2021;tratada_cmsp
10686;35010686;ERNESTO THENN DE BARROS PROFESSOR;OSASCO;JARDIM NOVO OSASCO;OSASCO;OSASCO;Urbana;6142100;-23.57099915;-46.79610062;5,18;1;2020-05-27;161476455;2020;2021;tratada_cmsp
10716;35010716;JOSE MARIA RODRIGUES LEITE PROFESSOR;OSASCO;VILA CAMPESINA;OSASCO;OSASCO;Urbana;6023030;-23.54247093;-46.77180099;5,51;1;2020-05-27;252457660;2020;2021;tratada_cmsp
10728;35010728;ALCYR OLIVEIRA PORCIUNCULA PROFESSOR;OSASCO;VILA MENCK;OSASCO;OSASCO;Urbana;6273000;-23.50626564;-46.76723099;5,14;1;2020-05-27;131984277;2020;2021;tratada_cmsp
10731;35010731;CAMPO BONITO;INDAIATUBA;PARQUE CAMPO BONITO;INDAIATUBA;CAPIVARI;Urbana;13349057;-23.09632492;-47.27640152;;0;;0;;0;nunca_tratada_cmsp
10733;35010733;EE JARDIM REAL II;PRESIDENTE EPITACIO;N? 2945;PRESIDENTE EPITACIO;SANTO ANASTACIO;Urbana;19470000;-21.78971481;-52.11585617;;0;;0;;0;nunca_tratada_cmsp
10741;35010741;ROSA BONFIGLIOLI;OSASCO;JARDIM DABRIL;OSASCO;OSASCO;Urbana;6038300;-23.56889915;-46.77750015;5,02;1;2020-05-27;67398975;2020;2021;tratada_cmsp
1077;35001077;JUDITH GUIMARAES DOS SANTOS PROFA;TREMEMBE;BORTOLANDIA;SAO PAULO;NORTE 2;Urbana;2352030;-23.45639992;-46.59719849;5,49;1;2020-05-27;72493895;2020;2021;tratada_cmsp
10781;35010781;CEL JTO A EE PROF? MARIA PIA SILVA CASTRO;FRANCA;PARQUE DO HORTO;FRANCA;FRANCA;Urbana;14409360;-20.48782921;-47.4026413;;0;;0;;0;nunca_tratada_cmsp
10789;35010789;JOSE LIBERATTI PROFESSOR;OSASCO;CENTRO;OSASCO;OSASCO;Urbana;6016020;-23.53539085;-46.77835083;5,55;1;2020-05-27;263340074;2020;2021;tratada_cmsp
10790;35010790;FRANCISCA LISBOA PERALTA PROFESSORA;OSASCO;JARDIM ELVIRA;OSASCO;OSASCO;Urbana;6243000;-23.50359917;-46.7948494;4,99;1;2020-05-27;69745551;2020;2021;tratada_cmsp
10807;35010807;ANTONIO PAIVA DE SAMPAIO CORONEL;OSASCO;QUITAUNA;OSASCO;OSASCO;Urbana;6186190;-23.53392982;-46.81111908;5,12;1;2020-05-27;32966096;2020;2021;tratada_cmsp
10820;35010820;FANNY MONZONI SANTOS PROFESSORA;OSASCO;VILA YOLANDA;OSASCO;OSASCO;Urbana;6120280;-23.54556084;-46.79280853;5,37;1;2020-05-27;201134126;2020;2021;tratada_cmsp
10844;35010844;MARIA AUGUSTA SIQUEIRA PROFESSORA;OSASCO;REMEDIOS;OSASCO;OSASCO;Urbana;6296060;-23.51741028;-46.75756836;4,92;1;2020-05-27;111433113;2020;2021;tratada_cmsp
10868;35010868;LUIZ LUSTOSA DA SILVA PROFESSOR DOUTOR;OSASCO;BARONESA;OSASCO;OSASCO;Urbana;6266030;-23.49670029;-46.78609848;4,8;1;2020-05-27;316212454;2020;2021;tratada_cmsp
10873;35010873;JOAO BAPTISTA DE BRITO PROFESSOR;OSASCO;VILA YARA;OSASCO;OSASCO;Urbana;6020040;-23.54949951;-46.75999832;5,4;1;2020-05-27;332940488;2020;2021;tratada_cmsp
10881;35010881;AURELIANO LEITE DOUTOR;OSASCO;VILA MENK;OSASCO;OSASCO;Urbana;6270060;-23.49888992;-46.77042007;5,01;1;2020-05-27;179884932;2020;2021;tratada_cmsp
1089;35001089;GABRIELA MISTRAL;JACANA;PARQUE EDU CHAVES;SAO PAULO;NORTE 2;Urbana;2232000;-23.47837067;-46.5623703;4,99;1;2020-05-27;34167176;2020;2021;tratada_cmsp
10893;35010893;AMERICO MARCO ANTONIO DOUTOR;OSASCO;PESTANA;OSASCO;OSASCO;Urbana;6122170;-23.54348946;-46.8012886;5,22;1;2020-05-27;290063987;2020;2021;tratada_cmsp
1090;35001090;JOSE MARIA REYS PROF;VILA MEDEIROS;JARDIM JAPAO;SAO PAULO;NORTE 2;Urbana;2135001;-23.49739075;-46.5872612;5,2;1;2020-05-27;42549025;2020;2021;tratada_cmsp
10900;35010900;BENEDICTO CALDEIRA PROFESSOR;OSASCO;JAGUARIBE;OSASCO;OSASCO;Urbana;6050070;-23.55882072;-46.78659058;5,48;1;2020-05-27;139642435;2020;2021;tratada_cmsp
10923;35010923;HELOISA DE ASSUMPCAO PROFESSORA;OSASCO;KM 18;OSASCO;OSASCO;Urbana;6192010;-23.52499962;-46.80509949;5,29;1;2020-05-27;126865692;2020;2021;tratada_cmsp
10947;35010947;ALICE VELHO TEIXEIRA PROFESSORA;OSASCO;PRESIDENTE ALTINO;OSASCO;OSASCO;Urbana;6210070;-23.52969933;-46.76285172;4,95;1;2020-05-27;124005218;2020;2021;tratada_cmsp
10959;35010959;JULIA LOPES DE ALMEIDA;OSASCO;ROCHDALE;OSASCO;OSASCO;Urbana;6226002;-23.51819992;-46.78089905;5,15;1;2020-05-27;295432142;2020;2021;tratada_cmsp
10984;35010984;GLORIA AZEDIA BONETTI PROFESSORA;OSASCO;BELA VISTA;OSASCO;OSASCO;Urbana;6070270;-23.54969025;-46.78390884;5,51;1;2020-05-27;49686485;2020;2021;tratada_cmsp
10996;35010996;GRACILIANO RAMOS;OSASCO;NOVO OSASCO;OSASCO;OSASCO;Urbana;6045270;-23.57744026;-46.7928772;4,97;1;2020-05-27;93358702;2020;2021;tratada_cmsp
11010;35011010;OGUIOMAR RUGGERI PROFESSOR;OSASCO;VELOSO;OSASCO;OSASCO;Urbana;6144170;-23.56640053;-46.80229187;5,2;1;2020-05-27;187021729;2020;2021;tratada_cmsp
11022;35011022;GUILHERME DE OLIVEIRA GOMES DEPUTADO;OSASCO;CIPAVA;OSASCO;OSASCO;Urbana;6075150;-23.54678917;-46.78950882;;0;;0;;0;nunca_tratada_cmsp
11034;35011034;TELMO COELHO FILHO MAJOR;OSASCO;KM 18;OSASCO;OSASCO;Urbana;6192010;-23.52795029;-46.79473114;5,52;1;2020-05-27;141697703;2020;2021;tratada_cmsp
11044;35011044;CEEJA DE ANDRADINA;ANDRADINA;VILA SANCHES;ANDRADINA;ANDRADINA;Urbana;16900114;-20.91013145;-51.3854866;;0;;0;;0;nunca_tratada_cmsp
11045;35011045;CEEJA DE TUPA;TUPA;CENTRO;TUPA;TUPA;Urbana;17600260;-21.93770981;-50.51343918;;0;;0;;0;nunca_tratada_cmsp
11052;35011052;CENTRO ESTADUAL DE EDUCACAO DE JOVENS E ADULTOS – CEEJA DE PRESIDENTE VENCESLAU;PRESIDENTE VENCESLAU;VILA ORIENTAL;PRESIDENTE VENCESLAU;SANTO ANASTACIO;Urbana;19406014;-21.86956024;-51.84046173;;0;;0;;0;nunca_tratada_cmsp
11058;35011058;LEONARDO VILAS BOAS;OSASCO;PADROEIRA;OSASCO;OSASCO;Urbana;6172000;-23.54754066;-46.80950165;4,86;1;2020-05-27;36831555;2020;2021;tratada_cmsp
11061;35011061;JOSUE BENEDICTO MENDES PROFESSOR;OSASCO;JARDIM ELVIRA;OSASCO;OSASCO;Urbana;6250250;-23.49720955;-46.80477142;5,03;1;2020-05-27;146193880;2020;2021;tratada_cmsp
11083;35011083;VICENTE PEIXOTO PROFESSOR;OSASCO;VILA OSASCO;OSASCO;OSASCO;Urbana;6086130;-23.53813934;-46.78372955;5,44;1;2020-05-27;136673236;2020;2021;tratada_cmsp
11095;35011095;ANTONIO RAPOSO TAVARES;OSASCO;CENTRO;OSASCO;OSASCO;Urbana;6097080;-23.52729988;-46.77880096;5,37;1;2020-05-27;416697025;2020;2021;tratada_cmsp
11113;35011113;FRANCISCO CASABONA PROFESSOR;OSASCO;AYROSA;OSASCO;OSASCO;Urbana;6290050;-23.51827049;-46.77048111;5,05;1;2020-05-27;54360730;2020;2021;tratada_cmsp
11137;35011137;NEWTON ESPIRITO SANTO AYRES PROFESSOR;OSASCO;SANTO ANTONIO;OSASCO;OSASCO;Urbana;6130140;-23.55804062;-46.7989502;5,26;1;2020-05-27;215289233;2020;2021;tratada_cmsp
11149;35011149;LUCY ANNA CARROZO LATORRE PROFESSORA;OSASCO;JARDIM DAS FLORES;OSASCO;OSASCO;Urbana;6110230;-23.5359993;-46.79309082;5,53;1;2020-05-27;136810605;2020;2021;tratada_cmsp
11150;35011150;JOSE CELESTINO ARANHA;UBATUBA;HORTO FLORESTAL;UBATUBA;CARAGUATATUBA;Urbana;11694030;-23.41594124;-45.11328125;5,01;1;2020-05-28;91652350;2020;2021;tratada_cmsp
11162;35011162;FLORENTINA MARTINS SANCHEZ PROFESSORA;UBATUBA;PEREQUE MIRIM;UBATUBA;CARAGUATATUBA;Urbana;11686400;-23.48475075;-45.10519028;4,7;1;2020-05-27;63768021;2020;2021;tratada_cmsp
11186;35011186;SEMIRAMIS PRADO DE OLIVEIRA PROFESSORA;UBATUBA;SACO DA RIBEIRA;UBATUBA;CARAGUATATUBA;Urbana;11685726;-23.50479126;-45.12741089;4,97;1;2020-05-27;61107441;2020;2021;tratada_cmsp
11187;35011187;CENTRO DE DETENCAO PROVISORIA DE MOGI DAS CRUZES;MOGI DAS CRUZES;TABOAO;MOGI DAS CRUZES;MOGI DAS CRUZES;0;8772010;-23.42743683;-46.24398804;;0;;0;;0;nunca_tratada_cmsp
1119;35001119;EURIPEDES DE CASTRO;VILA MEDEIROS;JARDIM BRASIL ZONA NORTE;SAO PAULO;NORTE 2;Urbana;2225010;-23.48049927;-46.57550049;4,97;1;2020-05-27;66505772;2020;2021;tratada_cmsp
11198;35011198;AUREA MOREIRA RACHOU PROFESSORA;UBATUBA;SERTAO DO MEIO;UBATUBA;CARAGUATATUBA;Urbana;11681758;-23.52993965;-45.24335861;4,87;1;2020-05-27;33767046;2020;2021;tratada_cmsp
1120;35001120;EXPEDICIONARIO BRASILEIRO;SANTANA;AGUA FRIA;SAO PAULO;CENTRO;Urbana;2334001;-23.48257065;-46.62004089;5,68;1;2020-05-27;122098079;2020;2021;tratada_cmsp
11204;35011204;PLINIO GONCALVES DE OLIVEIRA SANTOS;MARESIAS;JUQUEHY;SAO SEBASTIAO;CARAGUATATUBA;Urbana;11623271;-23.76119995;-45.73078918;4,8;1;2020-05-27;21617862;2020;2021;tratada_cmsp
11216;35011216;DEOLINDO DE OLIVEIRA SANTOS CAPITAO;UBATUBA;CENTRO;UBATUBA;CARAGUATATUBA;Urbana;11690165;-23.43446922;-45.0780983;5,02;1;2020-05-27;40632624;2020;2021;tratada_cmsp
11217;35011217;CENTRO ATEND SOCIOEDUC AO ADOLESC DE FRANCA CIP;FRANCA;JARDIM MARAMBAIA;FRANCA;FRANCA;Urbana;14409652;-20.46859932;-47.41212082;;0;;0;;0;nunca_tratada_cmsp
11228;35011228;GABRIEL RIBEIRO DOS SANTOS DOUTOR;ILHABELA;PEREQUE;ILHABELA;CARAGUATATUBA;Urbana;11630000;-23.80633926;-45.36386108;4,94;1;2020-05-27;20666156;2020;2021;tratada_cmsp
11253;35011253;ESTEVES DA SILVA DOUTOR;UBATUBA;CENTRO;UBATUBA;CARAGUATATUBA;Urbana;11690015;-23.43107033;-45.07164001;5,21;1;2020-05-27;102387994;2020;2021;tratada_cmsp
11265;35011265;WALKIR VERGANI;MARESIAS;BOICUCANGA;SAO SEBASTIAO;CARAGUATATUBA;Urbana;11618077;-23.78595924;-45.62409973;4,95;1;2020-05-27;45922594;2020;2021;tratada_cmsp
11289;35011289;MARIA JOSE DA PENHA FRUGOLI PROFESSORA;SAO FRANCISCO DA PRAIA;ENSEADA;SAO SEBASTIAO;CARAGUATATUBA;Urbana;11602170;-23.75410271;-45.83410645;5,01;1;2020-05-27;43398015;2020;2021;tratada_cmsp
11290;35011290;EDUARDO CORREA DA COSTA JUNIOR DOUTOR;CARAGUATATUBA;JARDIM PROGRESSO;CARAGUATATUBA;CARAGUATATUBA;Urbana;11674670;-23.63478088;-45.43458176;5,24;1;2020-05-27;38858054;2020;2021;tratada_cmsp
112948;35112948;CENTRO DE RESSOCIALIZACAO DE JAU CLASSES PROVISORIAS;JAU;2 ZONA INDUSTRIAL;JAU;JAU;Rural;17213701;-22.26269913;-48.55450058;;1;2021-02-09;1502522;2021;2021;tratada_cmsp
11296;35011296;CENTRO DE ATENDIMENTO INICIAL E PROVISORIO SAO FRANCISCO CAIP SAO FRANCISCO;VILA LEOPOLDINA;VILA LEOPOLDINA;SAO PAULO;CENTRO OESTE;0;5310000;-23.53092957;-46.74670029;;0;;0;;0;nunca_tratada_cmsp
113001;35113001;CENTRO ATEND SOCIOEDUC AO ADOLESCENTE CEDRO CI;RAPOSO TAVARES;JD ARPOADOR;SAO PAULO;CENTRO OESTE;Urbana;5577300;-23.5844;-46.7678;;0;;0;;0;nunca_tratada_cmsp
1132;35001132;PEDRO ALEXANDRINO;TUCURUVI;VILA NOVA MAZZEI;SAO PAULO;NORTE 2;Urbana;2316000;-23.46529961;-46.59690094;5,23;1;2020-05-27;127021590;2020;2021;tratada_cmsp
11320;35011320;THOMAZ RIBEIRO DE LIMA;CARAGUATATUBA;CENTRO;CARAGUATATUBA;CARAGUATATUBA;Urbana;11660280;-23.61923981;-45.41056824;5,17;1;2020-05-27;93138955;2020;2021;tratada_cmsp
11332;35011332;ALCIDES DE CASTRO GALVAO;CARAGUATATUBA;SUMARE;CARAGUATATUBA;CARAGUATATUBA;Urbana;11661100;-23.62104034;-45.40150833;5,18;1;2020-05-27;53912846;2020;2021;tratada_cmsp
11368;35011368;MAISA THEODORO DA SILVA PROFESSORA;SAO SEBASTIAO;VILA AMELIA;SAO SEBASTIAO;CARAGUATATUBA;Urbana;11609045;-23.80279922;-45.40568924;5,25;1;2020-05-27;35983983;2020;2021;tratada_cmsp
11373;35011373;NAIR FERREIRA NEVES PROFESSORA;SAO FRANCISCO DA PRAIA;SAO FRANCISCO DA PRAIA;SAO SEBASTIAO;CARAGUATATUBA;Urbana;11629520;-23.75432014;-45.41276169;5,4;1;2020-05-27;66108302;2020;2021;tratada_cmsp
11381;35011381;BENEDITO MIGUEL CARLOTA;CARAGUATATUBA;MASSAGUACU;CARAGUATATUBA;CARAGUATATUBA;Urbana;11677498;-23.57764053;-45.32213974;5,25;1;2020-05-27;43185396;2020;2021;tratada_cmsp
11393;35011393;AVELINO FERREIRA;PORTO NOVO;JARDIM PORTO NOVO;CARAGUATATUBA;CARAGUATATUBA;Urbana;11667000;-23.69156075;-45.44285965;5,2;1;2020-05-27;34720230;2020;2021;tratada_cmsp
11400;35011400;ISMAEL IGLESIAS;PORTO NOVO;BARRANCO ALTO;CARAGUATATUBA;CARAGUATATUBA;Urbana;11670000;-23.68749046;-45.44881821;5,17;1;2020-05-27;72379986;2020;2021;tratada_cmsp
11423;35011423;HUMBERTO DE ALENCAR CASTELLO BRANCO MARECHAL;CUBATAO;JARDIM CASQUEIRO;CUBATAO;SANTOS;Urbana;11533150;-23.92761993;-46.41131973;5,02;1;2020-05-27;224630902;2020;2021;tratada_cmsp
11435;35011435;AFONSO SCHIMIDT;CUBATAO;VILA PAULISTA;CUBATAO;SANTOS;Urbana;11510260;-23.88279915;-46.42340088;4,94;1;2020-05-27;19226245;2020;2021;tratada_cmsp
1144;35001144;JULIO PESTANA;JACANA;TUCURUVI;SAO PAULO;NORTE 2;Urbana;2265002;-23.46489906;-46.58340073;5,06;1;2020-05-27;88937848;2020;2021;tratada_cmsp
11447;35011447;JACINTO DO AMARAL NARDUCCI PROF;GUARUJA;CACHOEIRA;GUARUJA;SANTOS;Urbana;11435000;-23.97960091;-46.26076889;4,65;1;2020-05-27;34930666;2020;2021;tratada_cmsp
11459;35011459;RENE RODRIGUES DE MORAES PROFESSOR;GUARUJA;JARDIM HELENA MARIA;GUARUJA;SANTOS;Urbana;11431090;-23.99360085;-46.27330017;;0;;0;;0;nunca_tratada_cmsp
11460;35011460;JOSE CAVARIANI PROFESSOR;VICENTE DE CARVALHO;SITIO PAECARA VICENTE DE CARVALHO;GUARUJA;SANTOS;Urbana;11460490;-23.94790077;-46.28720093;4,84;1;2020-05-27;47653770;2020;2021;tratada_cmsp
11484;35011484;WALTER SCHEPIS PROFESSOR;VICENTE DE CARVALHO;SITIO PAECARA;GUARUJA;SANTOS;Urbana;11462000;-23.95400047;-46.28839874;5,06;1;2020-05-27;302264079;2020;2021;tratada_cmsp
11496;35011496;NOSSA SENHORA DOS NAVEGANTES;GUARUJA;SANTA CRUZ DOS NAVEGANTES;GUARUJA;SANTOS;Urbana;11425150;-23.99696922;-46.30205917;4,69;1;2020-05-27;19688595;2020;2021;tratada_cmsp
115;35000115;FRANCISCO FARIA NETO PROFESSOR;JARAGUA;JARDIM SYDNEY;SAO PAULO;NORTE 1;Urbana;2982000;-23.45070076;-46.71620178;4,77;1;2020-05-27;38853563;2020;2021;tratada_cmsp
11502;35011502;THEREZA SILVEIRA DE ALMEIDA PROFESSORA;GUARUJA;VILA JULIA;GUARUJA;SANTOS;Urbana;11440080;-23.98339081;-46.2455101;4,71;1;2020-05-27;135824817;2020;2021;tratada_cmsp
11514;35011514;DINIZ MARTINS PROFESSOR;VICENTE DE CARVALHO;VILA AUREA;GUARUJA;SANTOS;Urbana;11454590;-23.94238091;-46.28377151;5,02;1;2020-05-27;193866359;2020;2021;tratada_cmsp
11526;35011526;EMIDIO JOSE PINHEIRO PROFESSOR;GUARUJA;VILA SANTA ROSA;GUARUJA;SANTOS;Urbana;11431091;-23.99189949;-46.28450012;5,46;1;2020-05-27;70013064;2020;2021;tratada_cmsp
11538;35011538;PAULO CLEMENTE SANTINI;GUARUJA;JARDIM PRAIANO;GUARUJA;SANTOS;Urbana;11440300;-23.97660065;-46.23389816;4,74;1;2020-05-27;109356612;2020;2021;tratada_cmsp
11548;35011548;RAQUEL DE CASTRO FERREIRA PROFESSORA;GUARUJA;CENTRO;GUARUJA;SANTOS;Urbana;11410160;-23.99410057;-46.25490189;5,23;1;2020-05-27;83707401;2020;2021;tratada_cmsp
11551;35011551;PHILOMENA CARDOSO DE OLIVEIRA PROFESSORA;VICENTE DE CARVALHO;SITIO PAECARA VICENTE DE CARVALHO;GUARUJA;SANTOS;Urbana;11450410;-23.94669914;-46.30459976;4,77;1;2020-05-27;11128767;2020;2021;tratada_cmsp
1156;35001156;SILVA JARDIM;TUCURUVI;TUCURUVI;SAO PAULO;NORTE 2;Urbana;2304002;-23.48130035;-46.60520172;5,36;1;2020-05-27;227845393;2020;2021;tratada_cmsp
115605;35115605;CENTRO ATEND SOCIOEDUC ADOLESCENTE VILA GUILHERME CI;BELEM;VILA MOREIRA;SAO PAULO;LESTE 5;Urbana;3074000;-46.5947;-46.5947;;0;;0;;0;nunca_tratada_cmsp
11563;35011563;GALDINO MOREIRA PROFESSOR;GUARUJA;PARQUE ENSEADA;GUARUJA;SANTOS;Urbana;11443290;-23.97923088;-46.20291138;4,84;1;2020-05-28;79651780;2020;2021;tratada_cmsp
11575;35011575;MARCILIO DIAS;VICENTE DE CARVALHO;VILA ALICE VICENTE DE CARVALHO;GUARUJA;SANTOS;Urbana;11450160;-23.93873978;-46.30181885;4,94;1;2020-05-27;88578355;2020;2021;tratada_cmsp
11587;35011587;VICENTE DE CARVALHO;GUARUJA;CENTRO;GUARUJA;SANTOS;Urbana;11410000;-23.99480057;-46.25650024;5,16;1;2020-05-27;357394896;2020;2021;tratada_cmsp
11605;35011605;ARMANDO BELLEGARD PROFESSOR;BERTIOGA;CENTRO;BERTIOGA;SANTOS;Urbana;11250270;-23.8427906;-46.1371994;5,18;1;2020-05-27;151555007;2020;2021;tratada_cmsp
11617;35011617;WILLIAM AURELI;BERTIOGA;RIO DA PRAIA;BERTIOGA;SANTOS;Urbana;11256090;-23.82777977;-46.11548996;4,95;1;2020-05-27;88698640;2020;2021;tratada_cmsp
11629;35011629;JULIO CONCEICAO;CUBATAO;VILA COUTO;CUBATAO;SANTOS;Urbana;11510150;-23.8845005;-46.42599869;5,18;1;2020-05-27;186339044;2020;2021;tratada_cmsp
11630;35011630;LINCOLN FELICIANO;CUBATAO;VILA NOVA;CUBATAO;SANTOS;Urbana;11525000;-23.89579964;-46.42610168;5,43;1;2020-05-27;281973415;2020;2021;tratada_cmsp
11642;35011642;ZENON CLEANTES DE MOURA PROFESSOR;CUBATAO;FABRIL;CUBATAO;SANTOS;Urbana;11543100;-23.87979889;-46.45341873;4,77;1;2020-05-27;57951788;2020;2021;tratada_cmsp
11666;35011666;EDUARDO GOMES MARECHAL DO AR;VICENTE DE CARVALHO;JARDIM CUNHAMBEBE VICENTE DE CARVALHO;GUARUJA;SANTOS;Urbana;11450010;-23.93379974;-46.30390167;5,2;1;2020-05-27;400737398;2020;2021;tratada_cmsp
11678;35011678;HUGO SANTOS SILVA DOUTOR;GUARUJA;VILA LUIS ANTONIO;GUARUJA;SANTOS;Urbana;11420425;-24.00720024;-46.27145004;5,46;1;2020-05-27;425716476;2020;2021;tratada_cmsp
1168;35001168;ALFREDO INACIO TRINDADE;TUCURUVI;VILA NIVI;SAO PAULO;NORTE 2;Urbana;2255130;-23.47779083;-46.5918808;5,26;1;2020-05-27;133185206;2020;2021;tratada_cmsp
11685;35011685;JOSE DA COSTA PROFESSOR;CUBATAO;JARDIM TRINTA E UM DE MARCO;CUBATAO;SANTOS;Urbana;11515060;-23.88969994;-46.42810059;4,81;1;2020-05-27;163604736;2020;2021;tratada_cmsp
11691;35011691;MARIA HELENA DUARTE CAETANO PROFESSORA;CUBATAO;COTA 200;CUBATAO;SANTOS;Urbana;11548000;-23.89123917;-46.47365189;4,99;1;2020-05-27;32753717;2020;2021;tratada_cmsp
11708;35011708;AZEVEDO JUNIOR;SANTOS;VILA BELMIRO;SANTOS;SANTOS;Urbana;11075550;-23.95240021;-46.33969879;5,27;1;2020-05-27;206806618;2020;2021;tratada_cmsp
11721;35011721;SAO LEOPOLDO VISCONDE DE;SANTOS;MACUCO;SANTOS;SANTOS;Urbana;11015131;-23.95208931;-46.32003021;4,94;1;2020-05-27;95526020;2020;2021;tratada_cmsp
1173;35001173;ALBINO CESAR;TUCURUVI;VILA MAZZEI;SAO PAULO;NORTE 2;Urbana;2308090;-23.4776001;-46.60660172;5,26;1;2020-05-27;156537970;2020;2021;tratada_cmsp
11757;35011757;LUIZA MACUCO DONA;SANTOS;PONTA DA PRAIA;SANTOS;SANTOS;Urbana;11035030;-23.98003006;-46.30049896;5,33;1;2020-05-27;408067068;2020;2021;tratada_cmsp
11770;35011770;BENEVENUTO MADUREIRA PROFESSOR;SANTOS;SANTA MARIA;SANTOS;SANTOS;Urbana;11089030;-23.94020081;-46.36930084;4,93;1;2020-05-27;165118528;2020;2021;tratada_cmsp
11782;35011782;SUETONIO BITTENCOURT JUNIOR PROFESSOR;SANTOS;ESTUARIO;SANTOS;SANTOS;Urbana;11025190;-23.97171974;-46.30139923;5,49;1;2020-05-27;85429475;2020;2021;tratada_cmsp
11794;35011794;NEVES PRADO MONTEIRO;SANTOS;VILA SAO JORGE;SANTOS;SANTOS;Urbana;11085710;-23.9515419;-46.37117767;5,16;1;2020-05-27;88718283;2020;2021;tratada_cmsp
1181;35001181;RAFAEL DE MORAES LIMA PROF;TUCURUVI;JARDIM LEONOR MENDES DE BARROS;SAO PAULO;NORTE 2;Urbana;2346140;-23.46570015;-46.60589981;5,29;1;2020-05-27;98448469;2020;2021;tratada_cmsp
11812;35011812;FERNANDO DE AZEVEDO PROFESSOR;SANTOS;CASTELO;SANTOS;SANTOS;Urbana;11087160;-23.94400024;-46.37730026;5,21;1;2020-05-27;282152691;2020;2021;tratada_cmsp
11824;35011824;PRIMO FERREIRA PROFESSOR;SANTOS;VILA BELMIRO;SANTOS;SANTOS;Urbana;11075550;-23.95269966;-46.34019852;5,36;1;2020-05-27;350270939;2020;2021;tratada_cmsp
11836;35011836;CANADA;SANTOS;BOQUEIRAO;SANTOS;SANTOS;Urbana;11055011;-23.96489906;-46.32529831;5,3;1;2020-05-27;235229846;2020;2021;tratada_cmsp
11848;35011848;BRAZ CUBAS;SANTOS;MARAPE;SANTOS;SANTOS;Urbana;11070080;-23.95709991;-46.34759903;;0;;0;;0;nunca_tratada_cmsp
11861;35011861;PAULO FILGUEIRAS JUNIOR DOUTOR;SANTOS;CASTELO;SANTOS;SANTOS;Urbana;11087450;-23.94949913;-46.3791008;4,94;1;2020-05-27;107800157;2020;2021;tratada_cmsp
11873;35011873;LUIZ HIPOLITO PROFESSOR;AMERICANA;VILA DAINESE;AMERICANA;AMERICANA;Urbana;13469305;-22.72488976;-47.36172104;5,36;1;2020-05-27;10124003;2020;2021;tratada_cmsp
11885;35011885;ALZIRA MARTINS LICHTI PROFESSORA;SANTOS;MORRO DE NOVA CINTRA;SANTOS;SANTOS;Urbana;11080300;-23.94510078;-46.35559845;4,96;1;2020-05-27;136804729;2020;2021;tratada_cmsp
11897;35011897;ANTONIO ABLAS FILHO DOUTOR;SANTOS;APARECIDA;SANTOS;SANTOS;Urbana;11045401;-23.98049927;-46.31169891;5,56;1;2020-05-27;50993153;2020;2021;tratada_cmsp
11903;35011903;BARNABE;SANTOS;CENTRO;SANTOS;SANTOS;Urbana;11013220;-23.9377594;-46.32798004;4,68;1;2020-05-27;117901798;2020;2021;tratada_cmsp
11915;35011915;BARTOLOMEU DE GUSMAO PADRE;SANTOS;CHICO DE PAULA;SANTOS;SANTOS;Urbana;11085160;-23.93432045;-46.35387039;5;1;2020-05-27;88730757;2020;2021;tratada_cmsp
11927;35011927;MARQUES DE SAO VICENTE;SANTOS;CAMPO GRANDE;SANTOS;SANTOS;Urbana;11065003;-23.96439934;-46.33819962;5,36;1;2020-05-27;211139291;2020;2021;tratada_cmsp
1193;35001193;PHILOMENA BAYLAO PROFA;TREMEMBE;NUCLEO DO ENGORDADOR;SAO PAULO;NORTE 2;Urbana;2368000;-23.41764069;-46.58420181;5,16;1;2020-05-27;74532237;2020;2021;tratada_cmsp
11940;35011940;FRANCISCO MEIRA PROFESSOR;SANTOS;RADIO CLUB;SANTOS;SANTOS;Urbana;11088090;-23.93852997;-46.38098145;4,86;1;2020-05-27;145312311;2020;2021;tratada_cmsp
11952;35011952;SILVIA JORGE POLLASTRINI PROFESSORA;ITANHAEM;JARDIM BELAS ARTES;ITANHAEM;SAO VICENTE;Urbana;11740000;-24.19477081;-46.81084824;5,14;1;2020-05-27;231390348;2020;2021;tratada_cmsp
12;35000012;AYRES DE MOURA PROFESSOR;JAGUARA;VILA JAGUARA;SAO PAULO;NORTE 1;Urbana;5118000;-23.5121994;-46.74909973;5,46;1;2020-05-27;176692599;2020;2021;tratada_cmsp
1200;35001200;LAEL DE MOURA PRADO PROF;VILA MEDEIROS;VL SABRINA;SAO PAULO;NORTE 2;Urbana;2138030;-23.49760056;-46.57429886;5,37;1;2020-05-27;62765012;2020;2021;tratada_cmsp
12002;35012002;BENEDITO CALIXTO;ITANHAEM;CENTRO;ITANHAEM;SAO VICENTE;Urbana;11740000;-24.18280029;-46.78630066;5,39;1;2020-05-27;92849672;2020;2021;tratada_cmsp
12014;35012014;FRANCISCO MARTINS DOS SANTOS;PRAIA GRANDE;FLORIDA;PRAIA GRANDE;SAO VICENTE;Urbana;11708000;-24.06480026;-46.56570053;5,08;1;2020-05-27;192112343;2020;2021;tratada_cmsp
12026;35012026;DAGOBERTO NOGUEIRA DA FONSECA;ITANHAEM;JARDIM SUARAO;ITANHAEM;SAO VICENTE;Urbana;11740000;-24.15740967;-46.75492096;5,15;1;2020-05-27;82530894;2020;2021;tratada_cmsp
12038;35012038;JON TEODORESCO PROFESSOR;ITANHAEM;JARDIM MOSTEIRO;ITANHAEM;SAO VICENTE;Urbana;11740000;-24.18180084;-46.78879929;5,11;1;2020-05-27;63543260;2020;2021;tratada_cmsp
12051;35012051;ABRAHAO JACOB LAFER DOUTOR;PRAIA GRANDE;GUILHERMINA;PRAIA GRANDE;SAO VICENTE;Urbana;11701470;-24.00629997;-46.42229843;5,19;1;2020-05-27;46697166;2020;2021;tratada_cmsp
12063;35012063;ALFREDO REIS VIEGAS DOUTOR;PRAIA GRANDE;VILA SONIA;PRAIA GRANDE;SAO VICENTE;Urbana;11722200;-24.00370026;-46.44860077;4,79;1;2020-05-27;65460762;2020;2021;tratada_cmsp
12075;35012075;ANTONIO MOREIRA COELHO DEPUTADO;SAO VICENTE;VILA FATIMA;SAO VICENTE;SAO VICENTE;Urbana;11355340;-23.94930077;-46.40409851;4,98;1;2020-05-27;47049781;2020;2021;tratada_cmsp
12087;35012087;ENIO VILAS BOAS PROFESSOR;SAO VICENTE;CIDADE NAUTICA;SAO VICENTE;SAO VICENTE;Urbana;11355040;-23.94020081;-46.40790176;5,26;1;2020-05-27;59093712;2020;2021;tratada_cmsp
1211;35001211;MIGUEL VIEIRA FERREIRA DR;VILA MEDEIROS;VILA MEDEIROS;SAO PAULO;NORTE 2;Urbana;2214030;-23.49209976;-46.58580017;5,04;1;2020-05-27;21810894;2020;2021;tratada_cmsp
12129;35012129;MARIA THEREZA DA CUNHA PEDROSO PROFESSORA;SAO VICENTE;CATIAPOA;SAO VICENTE;SAO VICENTE;Urbana;11370480;-23.95269966;-46.38600159;4,9;1;2020-05-27;-3723063330;2020;2021;tratada_cmsp
12130;35012130;JOSE NIGRO PROFESSOR;SAO VICENTE;CATIAPOA;SAO VICENTE;SAO VICENTE;Urbana;11365330;-23.95759964;-46.39319992;4,88;1;2020-05-27;70167062;2020;2021;tratada_cmsp
12142;35012142;ZULMIRA DE ALMEIDA LAMBERT PROFESSORA;SAO VICENTE;JARDIM INDEPENDENCIA;SAO VICENTE;SAO VICENTE;Urbana;11380560;-23.96320915;-46.36994934;5,34;1;2020-05-27;154498273;2020;2021;tratada_cmsp
121484;35121484;WANDER TAFFO MUSICO;JARDIM SAO LUIS;PARQUE SANTO ANTONIO;SAO PAULO;SUL 2;Urbana;5851260;-23.66415024;-46.75946045;4,96;1;2020-05-27;31483192;2020;2021;tratada_cmsp
121605;35121605;CENTRO ATEND SOCIOEDUC ADOLESC SAO JOSE DOS CAMPOS CI;SAO JOSE DOS CAMPOS;TAMOIOS;SAO JOSE DOS CAMPOS;SAO JOSE DOS CAMPOS;Urbana;12233000;-23.21820068;-45.88000107;;1;2021-02-10;42870;2021;2021;tratada_cmsp
121617;35121617;CENTRO ATEND SOCIOED ADOLESCENTE S JOSE DOS CAMPOSCIP;SAO JOSE DOS CAMPOS;BAIRRO DA PERNAMBUCANA;SAO JOSE DOS CAMPOS;SAO JOSE DOS CAMPOS;Urbana;12228845;-23.21925926;-45.87950134;;1;2021-02-22;108188;2021;2021;tratada_cmsp
12178;35012178;JARDIM BOPEVA;PRAIA GRANDE;OCIAN;PRAIA GRANDE;SAO VICENTE;Urbana;11704150;-24.02280045;-46.47499847;5,28;1;2020-05-27;157640712;2020;2021;tratada_cmsp
12191;35012191;AUGUSTO PAES D AVILA REVERENDO;PRAIA GRANDE;AVIACAO;PRAIA GRANDE;SAO VICENTE;Urbana;11702350;-24.01116753;-46.43904114;5,44;1;2020-05-27;220591598;2020;2021;tratada_cmsp
12212;35012212;MARTIM AFONSO;SAO VICENTE;CENTRO;SAO VICENTE;SAO VICENTE;Urbana;11310080;-23.96920013;-46.38349915;5,18;1;2020-05-27;23719982;2020;2021;tratada_cmsp
12221;35012221;LAUDELINO FERNANDES DOS SANTOS PROFESSOR;PRAIA GRANDE;CAICARA;PRAIA GRANDE;SAO VICENTE;Urbana;11706250;-24.04556084;-46.52833176;5,41;1;2020-05-27;74267041;2020;2021;tratada_cmsp
122245;35122245;PARQUE JANE II;EMBU DAS ARTES;JARDIM VISTA ALEGRE;EMBU DAS ARTES;TABOAO DA SERRA;Urbana;6807310;-23.62895012;-46.82395935;5,3;1;2020-05-27;73300592;2020;2021;tratada_cmsp
1223;35001223;MARIA PAULA MARCONDES DOMINGUES PROFA;TREMEMBE;VILA ALBERTINA;SAO PAULO;NORTE 2;Urbana;2373000;-23.45401955;-46.61952972;5,45;1;2020-05-28;78031198;2020;2021;tratada_cmsp
12233;35012233;MARIA PACHECO NOBRE PROFESSORA;PRAIA GRANDE;BOQUEIRAO;PRAIA GRANDE;SAO VICENTE;Urbana;11700030;-24.00303078;-46.41215134;5,51;1;2020-05-27;494216160;2020;2021;tratada_cmsp
12245;35012245;YOLANDA CONTE PROFESSORA;SAO VICENTE;ESPLANADA DOS BARREIROS;SAO VICENTE;SAO VICENTE;Urbana;11340310;-23.95599937;-46.4129982;5,13;1;2020-05-27;41997462;2020;2021;tratada_cmsp
12269;35012269;ARACY DA SILVA FREITAS PROFESSORA;MONGAGUA;CENTRO;MONGAGUA;SAO VICENTE;Urbana;11730000;-24.09530067;-46.62139893;5,18;1;2020-05-27;54354029;2020;2021;tratada_cmsp
12294;35012294;FRANCISCO PEREIRA DA ROCHA DOUTOR;PERUIBE;CENTRO;PERUIBE;SAO VICENTE;Urbana;11750000;-24.27437019;-46.95051956;5,02;1;2020-05-27;203839557;2020;2021;tratada_cmsp
12300;35012300;MARGARIDA PINHO RODRIGUES;SAO VICENTE;VILA MARGARIDA;SAO VICENTE;SAO VICENTE;Urbana;11330570;-23.96743011;-46.40246964;4,68;1;2020-05-27;179826562;2020;2021;tratada_cmsp
12324;35012324;ARMANDO VICTORIO BEI;SAO VICENTE;PARQUE SAO VICENTE;SAO VICENTE;SAO VICENTE;Urbana;11360100;-23.95007515;-46.39797211;4,89;1;2020-05-27;109500259;2020;2021;tratada_cmsp
12348;35012348;LEOPOLDO JOSE DE SANT ANNA PROFESSOR;SAO VICENTE;PARQUE BITARU;SAO VICENTE;SAO VICENTE;Urbana;11310340;-23.96570015;-46.39440155;4,99;1;2020-05-27;152383592;2020;2021;tratada_cmsp
1235;35001235;CYRENE DE OLIVEIRA LAET DONA;JACANA;VILA NILO;SAO PAULO;NORTE 2;Urbana;2278040;-23.45910072;-46.57920074;5;1;2020-05-27;140167240;2020;2021;tratada_cmsp
12359;35012359;REYNALDO KUNTZ BUSCH DR;PRAIA GRANDE;BOQUEIRAO;PRAIA GRANDE;SAO VICENTE;Urbana;11701170;-24.00815964;-46.41741943;5,39;1;2020-05-27;100557120;2020;2021;tratada_cmsp
12361;35012361;HERMOGENES MAJOR;CRUZEIRO;VILA PAULISTA;CRUZEIRO;GUARATINGUETA;Urbana;12701210;-22.58568001;-44.9642601;5,01;1;2020-05-27;34273055;2020;2021;tratada_cmsp
12373;35012373;HUMBERTO TURNER;CRUZEIRO;ITAGACABA;CRUZEIRO;GUARATINGUETA;Urbana;12730160;-22.57932091;-44.95217896;4,75;1;2020-05-27;30585442;2020;2021;tratada_cmsp
12385;35012385;VIRGILIO ANTUNES PROF;CRUZEIRO;VILA DOUTOR JOAO BATISTA PARTE ALTA;CRUZEIRO;GUARATINGUETA;Urbana;12720100;-22.56340027;-44.94729996;5,04;1;2020-05-27;23202492;2020;2021;tratada_cmsp
12397;35012397;MARIO DA SILVA PINTO DR;CRUZEIRO;VILA ANA ROSA NOVAES;CRUZEIRO;GUARATINGUETA;Urbana;12705170;-22.57715988;-44.97243118;5,14;1;2020-05-27;141416263;2020;2021;tratada_cmsp
12403;35012403;HORTA CORONEL;LAVRINHAS;CENTRO;LAVRINHAS;GUARATINGUETA;Urbana;12760000;-22.57158279;-44.90217972;5,36;1;2020-05-27;36450325;2020;2021;tratada_cmsp
12427;35012427;JOSE DE PAULA FRANCA PROF;QUELUZ;CENTRO;QUELUZ;GUARATINGUETA;Urbana;12800000;-22.53536036;-44.77318542;4,89;1;2020-05-27;30082562;2020;2021;tratada_cmsp
12440;35012440;MIGUEL PEREIRA;SAO JOSE DO BARREIRO;CENTRO;SAO JOSE DO BARREIRO;GUARATINGUETA;Urbana;12830000;-22.64579964;-44.57728958;4,62;1;2020-05-27;4514643;2020;2021;tratada_cmsp
12464;35012464;SAO LAURINDO VISCONDE;BANANAL;CENTRO;BANANAL;GUARATINGUETA;Urbana;12850000;-22.68494034;-44.32794952;4,95;1;2020-05-27;101624400;2020;2021;tratada_cmsp
1247;35001247;RUY BARBOSA CONSELHEIRO;TREMEMBE;HORTO FLORESTAL;SAO PAULO;NORTE 2;Urbana;2377080;-23.45709991;-46.63059998;5,47;1;2020-05-27;63535648;2020;2021;tratada_cmsp
12488;35012488;VICENTE DE PAULA ALMEIDA;ARAPEI;CENTRO;ARAPEI;GUARATINGUETA;Urbana;12870000;-22.67452621;-44.44556427;4,63;1;2020-05-27;22095573;2020;2021;tratada_cmsp
12506;35012506;OSWALDO CRUZ;CRUZEIRO;CENTRO;CRUZEIRO;GUARATINGUETA;Urbana;12701360;-22.57349968;-44.96170044;5,21;1;2020-05-27;135605253;2020;2021;tratada_cmsp
12531;35012531;JOSE RODRIGUES ALVES SOBRINHO DR;CRUZEIRO;VILA CANEVARI;CRUZEIRO;GUARATINGUETA;Urbana;12710260;-22.56720924;-44.95878983;5;1;2020-05-27;45515330;2020;2021;tratada_cmsp
12543;35012543;BARAO DA BOCAINA;AREIAS;CENTRO;AREIAS;GUARATINGUETA;Urbana;12820000;-22.58140755;-44.69915009;5,01;1;2020-05-27;45132701;2020;2021;tratada_cmsp
12555;35012555;HILDEBRANDO MARTINS SODERO PROF;SILVEIRAS;CENTRO;SILVEIRAS;GUARATINGUETA;Urbana;12690000;-22.67111015;-44.85225677;4,83;1;2020-05-27;36658034;2020;2021;tratada_cmsp
12580;35012580;EDGARD DE SOUZA DR;APARECIDA;ITAGUACU;APARECIDA;GUARATINGUETA;Urbana;12576614;-22.86812973;-45.25893021;5,24;1;2020-05-27;7368523;2020;2021;tratada_cmsp
1259;35001259;JOAO LIGABUE CONEGO;TUCURUVI;VILA GUSTAVO;SAO PAULO;NORTE 2;Urbana;2206010;-23.4818306;-46.59609985;5,27;1;2020-05-27;91688055;2020;2021;tratada_cmsp
12609;35012609;AMERICO ALVES;APARECIDA;JARDIM SAO PAULO;APARECIDA;GUARATINGUETA;Urbana;12570108;-22.83730888;-45.22396469;5,35;1;2020-05-27;25343996;2020;2021;tratada_cmsp
12634;35012634;CLOTILDE AYELLO ROCHA PROFA;GUARATINGUETA;RETIRO;GUARATINGUETA;GUARATINGUETA;Urbana;12500010;-22.78480721;-45.2587204;4,96;1;2020-05-27;24937115;2020;2021;tratada_cmsp
12646;35012646;MARIA DA CONCEICAO QUERIDO PROFA;CUNHA;CAJURU;CUNHA;GUARATINGUETA;Urbana;12530000;-23.07714081;-44.95566177;;0;;0;;0;nunca_tratada_cmsp
12661;35012661;RODRIGUES ALVES CONSELHEIRO;GUARATINGUETA;CENTRO;GUARATINGUETA;GUARATINGUETA;Urbana;12501290;-22.81900024;-45.19480133;5,01;1;2020-05-27;26411611;2020;2021;tratada_cmsp
12683;35012683;JOAQUIM VILELA DE OLIVEIRA MARCONDES;GUARATINGUETA;NOVA GUARA;GUARATINGUETA;GUARATINGUETA;Urbana;12515320;-22.80929947;-45.18130112;5,55;1;2020-05-27;96321100;2020;2021;tratada_cmsp
12695;35012695;ERNESTO QUISSAK PROF;GUARATINGUETA;ENGENHEIRO NEIVA;GUARATINGUETA;GUARATINGUETA;Urbana;12521180;-22.78039932;-45.16460037;5,37;1;2020-05-27;79868039;2020;2021;tratada_cmsp
127;35000127;JOSE ALTENFELDER SILVA PROFESSOR;JAGUARA;VILA DOS REMEDIOS;SAO PAULO;NORTE 1;Urbana;5103060;-23.51357366;-46.75196764;5,41;1;2020-05-27;193089942;2020;2021;tratada_cmsp
127012;35127012;PARQUE OZIEL;CAMPINAS OESTE;JARDIM MONTE CRISTO/PARQUE OZIEL;CAMPINAS;CAMPINAS OESTE;Urbana;13049066;-22.9395504;-47.08512115;4,74;1;2020-05-27;22803293;2020;2021;tratada_cmsp
127152;35127152;ALDEIA BOA VISTA;UBATUBA;PROMIRIM;UBATUBA;CARAGUATATUBA;Urbana;11697404;-23.37615967;-44.96944046;;1;2020-06-07;57;2020;2021;tratada_cmsp
127164;35127164;ALDEIA GWAWIRA;IGUAPE;SABAUNA;IGUAPE;MIRACATU;Rural;11920000;-24.79512024;-47.76939011;;0;;0;;0;nunca_tratada_cmsp
127176;35127176;ALDEIA URUITY;MIRACATU;BAIRRO MUSACEA;MIRACATU;MIRACATU;Rural;11850000;-24.26409912;-47.32629013;;0;;0;;0;nunca_tratada_cmsp
1272;35001272;ANGELO BORTOLO;TREMEMBE;BORTOLANDIA;SAO PAULO;NORTE 2;Urbana;2352090;-23.45499992;-46.59719849;5,18;1;2020-05-27;135319971;2020;2021;tratada_cmsp
12725;35012725;JOSE FELIX PROF;POTIM;CENTRO;POTIM;GUARATINGUETA;Urbana;12525007;-22.84356308;-45.25125122;4,96;1;2020-05-27;5919417;2020;2021;tratada_cmsp
127292;35127292;AMANCIA DIAS SAMPAIO PROFA;JACAREI;JARDIM TERRAS DE SAO JOAO;JACAREI;JACAREI;Urbana;12324772;-23.3155098;-46.07899094;5,8;1;2020-05-27;192423529;2020;2021;tratada_cmsp
12750;35012750;MARIA AMALIA DE MAGALHAES TURNER PROFA;GUARATINGUETA;CAMPINHO;GUARATINGUETA;GUARATINGUETA;Urbana;12502350;-22.81650925;-45.18188095;5,05;1;2020-05-27;102033459;2020;2021;tratada_cmsp
12774;35012774;PAULO VIRGINIO CUNHA;CUNHA;CENTRO;CUNHA;GUARATINGUETA;Urbana;12530000;-23.07520676;-44.95689774;4,89;1;2020-05-27;307406077;2020;2021;tratada_cmsp
127784;35127784;ELCIO ANTONIO SELMI PROFESSOR;CAMPINAS OESTE;RESIDENCIAL COSMOS;CAMPINAS;CAMPINAS OESTE;Urbana;13059113;-22.94883919;-47.15929413;5,04;1;2020-05-27;246449443;2020;2021;tratada_cmsp
127796;35127796;CECILIA DE GODOY CAMARGO JORNALISTA;CAMPINAS OESTE;JARDIM ROSALINA;CAMPINAS;CAMPINAS OESTE;Urbana;13054646;-22.98057938;-47.12736893;5,08;1;2020-05-27;170915536;2020;2021;tratada_cmsp
127814;35127814;JARDIM SOUZA LIMA DO;BEBEDOURO;RESIDENCIAL BEBEDOURO;BEBEDOURO;JABOTICABAL;Urbana;14710032;-20.92991066;-48.47489929;4,93;1;2020-05-27;46125423;2020;2021;tratada_cmsp
12786;35012786;GERALDO COSTA;CAMPOS DE CUNHA;CAMPOS DE CUNHA;CUNHA;GUARATINGUETA;Urbana;12540000;-22.9228096;-44.82067871;4,36;1;2020-05-27;27481813;2020;2021;tratada_cmsp
127875;35127875;YOLANDA LUIZ SICHIERI PROFESSORA;PONTAL;CONJUNTO HABITACIONAL ORLANDO FONSECA;PONTAL;SERTAOZINHO;Urbana;14180000;-21.03561974;-48.0333519;4,86;1;2020-05-27;107870360;2020;2021;tratada_cmsp
127887;35127887;MARIVALDO CARLOS DEGAN PROFESSOR;SAO CARLOS;CIDADE ARACY;SAO CARLOS;SAO CARLOS;Urbana;13573140;-22.05481911;-47.90903091;5,05;1;2020-05-27;75177031;2020;2021;tratada_cmsp
12798;35012798;CASEMIRO DA ROCHA DR;CUNHA;CENTRO;CUNHA;GUARATINGUETA;Urbana;12530000;-23.07239914;-44.96009827;4,91;1;2020-05-27;115056004;2020;2021;tratada_cmsp
128132;35128132;HOSPITAL EMILIO RIBAS CLASSE HOSPITALAR;JARDIM PAULISTA;PACAEMBU;SAO PAULO;CENTRO OESTE;Urbana;1246000;-23.55450058;-46.66690063;;0;;0;;0;nunca_tratada_cmsp
12816;35012816;MURILLO DO AMARAL PROF;APARECIDA;SAO ROQUE;APARECIDA;GUARATINGUETA;Urbana;12573254;-22.83396912;-45.21979904;5,04;1;2020-05-27;15849255;2020;2021;tratada_cmsp
128181;35128181;HOSPITAL EMILIO RIBAS CLASSE HOSPITALAR;JARDIM PAULISTA;PACAEMBU;SAO PAULO;CENTRO OESTE;Urbana;1246000;-23.55579948;-46.66719818;;0;;0;;0;nunca_tratada_cmsp
128193;35128193;HOSPITAL EMILIO RIBAS CLASSE HOSPITALAR;JARDIM PAULISTA;PACAEMBU;SAO PAULO;CENTRO OESTE;Urbana;1246000;-23.55579948;-46.66719818;;0;;0;;0;nunca_tratada_cmsp
128272;35128272;CENTRO ATEND SOCIO EDUC ADOLESCENTE DE BAURU CIP;BAURU;NUCLEO RESIDENCIAL PRESIDENTE GEISEL;BAURU;BAURU;Urbana;17033530;-22.33506012;-49.0200882;;1;2021-02-10;65702;2021;2021;tratada_cmsp
12828;35012828;PAULINA CARDOSO PROFA;APARECIDA;PONTE ALTA;APARECIDA;GUARATINGUETA;Urbana;12575072;-22.84893036;-45.23737335;5,27;1;2020-05-27;38908527;2020;2021;tratada_cmsp
1284;35001284;AMENAIDE BRAGA DE QUEIROZ PROFA;TUCURUVI;JARDIM FRANCA;SAO PAULO;NORTE 2;Urbana;2337040;-23.47660065;-46.61169815;5,31;1;2020-05-27;63957572;2020;2021;tratada_cmsp
12841;35012841;NILO SANTOS VIEIRA PROF;GUARATINGUETA;BELVEDERE CLUB DOS 500;GUARATINGUETA;GUARATINGUETA;Urbana;12523460;-22.78597069;-45.14904022;5,1;1;2020-05-27;49347863;2020;2021;tratada_cmsp
12877;35012877;ANDRE BROCA PROF;ROSEIRA;CENTRO;ROSEIRA;GUARATINGUETA;Urbana;12580003;-22.89800835;-45.30379868;5,05;1;2020-05-27;26774121;2020;2021;tratada_cmsp
12889;35012889;CHICO PADRE;LAGOINHA;CENTRO;LAGOINHA;TAUBATE;Urbana;12130000;-23.09141922;-45.18880081;4,97;1;2020-05-27;139141879;2020;2021;tratada_cmsp
12890;35012890;ANTONIO DA CRUZ PAYAO PROF;GUARATINGUETA;ROCINHA;GUARATINGUETA;GUARATINGUETA;Rural;12503790;-45.09197998;-45.09197998;;0;;0;;0;nunca_tratada_cmsp
12919;35012919;ROGERIO LACAZ PROF;GUARATINGUETA;ESCOLA ESPECIALISTA DA AERONAUTICA;GUARATINGUETA;GUARATINGUETA;Urbana;12510110;-22.7826004;-45.22660065;5,85;1;2020-05-27;86750033;2020;2021;tratada_cmsp
12920;35012920;FRANCISCO AUGUSTO DA COSTA BRAGA PROF;GUARATINGUETA;PEDREGULHO;GUARATINGUETA;GUARATINGUETA;Urbana;12515050;-22.80569077;-45.19839096;5,19;1;2020-05-27;20571543;2020;2021;tratada_cmsp
12932;35012932;FLAMINIO LESSA DR;GUARATINGUETA;CENTRO;GUARATINGUETA;GUARATINGUETA;Urbana;12501150;-22.81990051;-45.19279861;;0;;0;;0;nunca_tratada_cmsp
12944;35012944;GABRIEL PRESTES;LORENA;CENTRO;LORENA;GUARATINGUETA;Urbana;12600040;-22.73073006;-45.1208992;5,16;1;2020-05-27;92095994;2020;2021;tratada_cmsp
1296;35001296;CARMOSINA MONTEIRO VIANNA PROFA;VILA MEDEIROS;JARDIM BRASIL ZONA NORTE;SAO PAULO;NORTE 2;Urbana;2210000;-23.48570061;-46.57989883;4,95;1;2020-05-27;157004931;2020;2021;tratada_cmsp
12968;35012968;LUIZ DE CASTRO PINTO PROF;LORENA;VILA PASSOS;LORENA;GUARATINGUETA;Urbana;12605190;-22.73781013;-45.10042953;5,21;1;2020-05-27;38818736;2020;2021;tratada_cmsp
13006;35013006;LEONOR GUIMARAES PROFA;PIQUETE;VILA CELESTE;PIQUETE;GUARATINGUETA;Urbana;12620000;-22.61676979;-45.1710701;4,9;1;2020-05-27;50982983;2020;2021;tratada_cmsp
13018;35013018;DARWIN FELIX PROF;PIQUETE;VILA ESPERANCA;PIQUETE;GUARATINGUETA;Urbana;12620000;-22.59970856;-45.18852997;4,98;1;2020-05-27;168818733;2020;2021;tratada_cmsp
1302;35001302;ARNALDO BARRETO;TREMEMBE;TREMEMBE;SAO PAULO;NORTE 2;Urbana;2370020;-23.4612999;-46.62189865;5,18;1;2020-05-27;29968551;2020;2021;tratada_cmsp
130321;35130321;THAYANE LUZIMARA COSTA VALCACER PROFESSORA;JARAGUA;JARDIM SAO JOAO JARAGUA;SAO PAULO;NORTE 1;Urbana;2995000;-23.43630028;-46.74020004;5,01;1;2020-05-27;46050829;2020;2021;tratada_cmsp
130333;35130333;REPUBLICA DA COLOMBIA;BRASILANDIA;JARDIM VISTA ALEGRE;SAO PAULO;NORTE 1;Urbana;2878160;-23.45389938;-46.68560028;4,92;1;2020-05-27;55266823;2020;2021;tratada_cmsp
13055;35013055;MARIA IZABEL FONTOURA PROF?;CACHOEIRA PAULISTA;EMBAU;CACHOEIRA PAULISTA;GUARATINGUETA;Rural;12630000;-22.61352921;-45.04193115;4,73;1;2020-05-27;38465481;2020;2021;tratada_cmsp
13079;35013079;OLIVEIRA GOMES COMENDADOR;CACHOEIRA PAULISTA;PARQUE PRIMAVERA;CACHOEIRA PAULISTA;GUARATINGUETA;Urbana;12630000;-22.6717205;-45.00910187;5,34;1;2020-05-28;58033167;2020;2021;tratada_cmsp
13080;35013080;JUCA PADRE;CACHOEIRA PAULISTA;VILA CARMEM;CACHOEIRA PAULISTA;GUARATINGUETA;Urbana;12630000;-22.66620064;-45.01679993;5,14;1;2020-05-27;6229755330;2020;2021;tratada_cmsp
13109;35013109;ARNOLFO AZEVEDO;LORENA;CIDADE INDUSTRIAL;LORENA;GUARATINGUETA;Urbana;12609166;-22.74430084;-45.1242981;5,07;1;2020-05-27;167472694;2020;2021;tratada_cmsp
13110;35013110;JOAQUIM FERREIRA PEDRO PROF;LORENA;SANTO ANTONIO;LORENA;GUARATINGUETA;Urbana;12608675;-22.74303055;-45.13093185;5,44;1;2020-05-27;58002658;2020;2021;tratada_cmsp
13134;35013134;ALICE VILELA GALVAO PROFA;CANAS;CENTRO;CANAS;GUARATINGUETA;Urbana;12615000;-22.7027092;-45.05110168;4,7;1;2020-05-27;14471604;2020;2021;tratada_cmsp
1314;35001314;CASSIO DA COSTA VIDIGAL;TREMEMBE;JARDIM JOAMAR;SAO PAULO;NORTE 2;Urbana;2321170;-23.44799995;-46.58959961;5,17;1;2020-05-27;21659209;2020;2021;tratada_cmsp
13146;35013146;PAULO VIRGINIO;CACHOEIRA PAULISTA;MARGINAL ESQUERDA;CACHOEIRA PAULISTA;GUARATINGUETA;Urbana;12630000;-22.65730095;-45.0135994;5,11;1;2020-05-27;36887508;2020;2021;tratada_cmsp
13158;35013158;REGINA POMPEIA PINTO PROFA;CACHOEIRA PAULISTA;SAO JOAO;CACHOEIRA PAULISTA;GUARATINGUETA;Urbana;12630000;-22.67057991;-44.99650955;4,89;1;2020-05-27;17546565;2020;2021;tratada_cmsp
13161;35013161;FRANCISCO MARQUES DE OLIVEIRA JUNIOR PROF;LORENA;PARQUE RODOVIAS;LORENA;GUARATINGUETA;Urbana;12605575;-22.73270035;-45.09479904;4,91;1;2020-05-27;38013770;2020;2021;tratada_cmsp
13171;35013171;SEVERINO MOREIRA BARBOSA;CACHOEIRA PAULISTA;CENTRO;CACHOEIRA PAULISTA;GUARATINGUETA;Urbana;12630000;-22.67023087;-45.01142883;4,77;1;2020-05-28;36069763;2020;2021;tratada_cmsp
13183;35013183;JOAO PEDRO CARDOSO DR;PINDAMONHANGABA;JD ROSELY;PINDAMONHANGABA;PINDAMONHANGABA;Urbana;12410740;-22.93647957;-45.45951843;5,14;1;2020-05-27;15622536;2020;2021;tratada_cmsp
13195;35013195;JOAO MARTINS DE ALMEIDA PROFESSOR;PINDAMONHANGABA;JARDIM BOA VISTA;PINDAMONHANGABA;PINDAMONHANGABA;Urbana;12401080;-22.92284966;-45.46908188;5,44;1;2020-05-27;143435079;2020;2021;tratada_cmsp
13201;35013201;PEDRO SILVA PROFESSOR;PINDAMONHANGABA;CAMPINAS;PINDAMONHANGABA;PINDAMONHANGABA;Urbana;12415030;-22.9625206;-45.4143486;4,99;1;2020-05-27;32307675;2020;2021;tratada_cmsp
1326;35001326;PEDRO DE MORAES VICTOR DR;TREMEMBE;VILA FIDALGO;SAO PAULO;NORTE 2;Urbana;2324100;-23.44393349;-46.58868027;5;1;2020-05-27;71978396;2020;2021;tratada_cmsp
13262;35013262;CLARO CESAR DEPUTADO;MOREIRA CESAR;LOTEAMENTO JOAO TAMBORINDEGUY FERNANDES;PINDAMONHANGABA;PINDAMONHANGABA;Urbana;12441030;-22.91930008;-45.36439896;5,26;1;2020-05-27;119452388;2020;2021;tratada_cmsp
13274;35013274;GENESIO CANDIDO PEREIRA DOUTOR;SAO BENTO DO SAPUCAI;CENTRO;SAO BENTO DO SAPUCAI;PINDAMONHANGABA;Urbana;12490000;-22.68629074;-45.73101044;5,05;1;2020-05-27;41829661;2020;2021;tratada_cmsp
13286;35013286;THEODORO CORREA CINTRA PROFESSOR;CAMPOS DO JORDAO;VILA PAULISTA;CAMPOS DO JORDAO;PINDAMONHANGABA;Urbana;12460000;-22.73802948;-45.58604813;5,17;1;2020-05-27;106945401;2020;2021;tratada_cmsp
13328;35013328;MARIA FERREIRA SONNEWEND PROFESSORA;MONTEIRO LOBATO;CENTRO;MONTEIRO LOBATO;SAO JOSE DOS CAMPOS;Urbana;12250000;-22.95656013;-45.8380394;5,05;1;2020-05-27;35126811;2020;2021;tratada_cmsp
13336;35013336;MARIO BULCAO GIUDICE PROFESSOR;PINDAMONHANGABA;BAIRRO DO SANTANA;PINDAMONHANGABA;PINDAMONHANGABA;Urbana;12403310;-22.92690086;-45.44739914;5,25;1;2020-05-27;70378729;2020;2021;tratada_cmsp
13353;35013353;ALZIRA FRANCO PROFESSORA;PINDAMONHANGABA;ALTO DO CARDOSO;PINDAMONHANGABA;PINDAMONHANGABA;Urbana;12420200;-22.94098091;-45.46297836;5,42;1;2020-05-27;39015964;2020;2021;tratada_cmsp
13365;35013365;RYOITI YASSUDA;PINDAMONHANGABA;JARDIM ROSELY;PINDAMONHANGABA;PINDAMONHANGABA;Urbana;12410670;-22.93588066;-45.45875168;5,66;1;2020-05-27;106060464;2020;2021;tratada_cmsp
1338;35001338;MARIA ANGELITA SAYAGO LAET PROFA;JACANA;JARDIM MODELO;SAO PAULO;NORTE 2;Urbana;2261020;-23.46699905;-46.57770157;5,28;1;2020-05-27;30235593;2020;2021;tratada_cmsp
13389;35013389;EURIPEDES BRAGA PROFESSOR;PINDAMONHANGABA;CRISPIM;PINDAMONHANGABA;PINDAMONHANGABA;Urbana;12402010;-22.91670036;-45.45019913;5,37;1;2020-05-27;60963798;2020;2021;tratada_cmsp
13390;35013390;ALFREDO PUJOL DOUTOR;PINDAMONHANGABA;CENTRO;PINDAMONHANGABA;PINDAMONHANGABA;Urbana;12400440;-22.92772484;-45.4613266;5,77;1;2020-05-27;337796551;2020;2021;tratada_cmsp
13407;35013407;MARIO TAVARES DOUTOR;MOREIRA CESAR;VILA SAO BENEDITO;PINDAMONHANGABA;PINDAMONHANGABA;Urbana;12445120;-22.89201927;-45.39162827;5,42;1;2020-05-27;64337996;2020;2021;tratada_cmsp
13432;35013432;GABRIELLA MONTEIRO DE ATHAYDE MARCONDES PROFESSORA;PINDAMONHANGABA;RIBEIRAO GRANDE;PINDAMONHANGABA;PINDAMONHANGABA;Rural;12404018;-22.87093163;-45.48209;5,03;1;2020-05-27;8335853;2020;2021;tratada_cmsp
13444;35013444;JOAO JOSE DE AZEVEDO MONSENHOR;PINDAMONHANGABA;BOM SUCESSO;PINDAMONHANGABA;PINDAMONHANGABA;Rural;12404010;-22.88740349;-45.54593277;5,05;1;2020-05-27;21462271;2020;2021;tratada_cmsp
13456;35013456;YOLANDA BUENO DE GODOY PROFESSORA;MOREIRA CESAR;FEITAL;PINDAMONHANGABA;PINDAMONHANGABA;Urbana;12441240;-22.94016075;-45.39495087;4,91;1;2020-05-27;100459338;2020;2021;tratada_cmsp
13468;35013468;AFFONSO DE CARVALHO DESEMBARGADOR;SANTO ANTONIO DO PINHAL;CENTRO;SANTO ANTONIO DO PINHAL;PINDAMONHANGABA;Urbana;12450000;-22.82663345;-45.65738678;4,98;1;2020-05-27;38550828;2020;2021;tratada_cmsp
1348;35001348;JOSE DO AMARAL MELLO PROF;JACANA;VILA NOVA GALVAO;SAO PAULO;NORTE 2;Urbana;2281110;-23.45159912;-46.57320023;4,92;1;2020-05-27;105175245;2020;2021;tratada_cmsp
13481;35013481;ALCEU MAYNARD ARAUJO PROFESSOR;SAO JOSE DOS CAMPOS;JARDIM MOTORAMA;SAO JOSE DOS CAMPOS;SAO JOSE DOS CAMPOS;Urbana;12224100;-23.17340088;-45.81847;5,35;1;2020-05-27;203162134;2020;2021;tratada_cmsp
13493;35013493;EDEWALDO FREITAS GAIA SANT ANA PROFESSOR;SAO JOSE DOS CAMPOS;JARDIM AMERICA;SAO JOSE DOS CAMPOS;SAO JOSE DOS CAMPOS;Urbana;12235420;-23.2343998;-45.90029907;5,85;1;2020-05-27;118373033;2020;2021;tratada_cmsp
13500;35013500;ZILDA ALTIMIRA SOCI PROFESSORA;SAO JOSE DOS CAMPOS;BOA VISTA;SAO JOSE DOS CAMPOS;SAO JOSE DOS CAMPOS;Urbana;12213690;-23.1343708;-45.91098022;5,28;1;2020-05-27;25054530;2020;2021;tratada_cmsp
1351;35001351;ADEMAR HIROSHI SUDA PROF;TUCURUVI;PARQUE VITORIA;SAO PAULO;NORTE 2;Urbana;2269080;-23.47064018;-46.59529877;5,36;1;2020-05-27;29536081;2020;2021;tratada_cmsp
13511;35013511;EUNICE CORDEIRO DOS SANTOS RODRIGUES PROFESSORA;SAO JOSE DOS CAMPOS;VILA SAO GERALDO;SAO JOSE DOS CAMPOS;SAO JOSE DOS CAMPOS;Urbana;12213270;-23.14790916;-45.911129;5,38;1;2020-05-27;14360048;2020;2021;tratada_cmsp
13523;35013523;ILZA IRMA MOELLER COPPIO PROFESSORA;SAO JOSE DOS CAMPOS;VILA SINHA;SAO JOSE DOS CAMPOS;SAO JOSE DOS CAMPOS;Urbana;12212659;-23.15654945;-45.90570831;5,56;1;2020-05-27;36355630;2020;2021;tratada_cmsp
13547;35013547;FELICIO SAVASTANO PROFESSOR;SAO JOSE DOS CAMPOS;MONTE CASTELO;SAO JOSE DOS CAMPOS;SAO JOSE DOS CAMPOS;Urbana;12215030;-23.18280029;-45.8730011;5,34;1;2020-05-27;62911436;2020;2021;tratada_cmsp
13559;35013559;JORGE BARBOSA MOREIRA PROFESSOR;SAO JOSE DOS CAMPOS;VILA CANDIDA;SAO JOSE DOS CAMPOS;SAO JOSE DOS CAMPOS;Urbana;12213531;-23.14036942;-45.90174103;5,05;1;2020-05-27;79325385;2020;2021;tratada_cmsp
13560;35013560;JOSE VIEIRA MACEDO PROFESSOR;SAO JOSE DOS CAMPOS;JARDIM SATELITE;SAO JOSE DOS CAMPOS;SAO JOSE DOS CAMPOS;Urbana;12230750;-23.23089981;-45.88819885;5,49;1;2020-05-27;43170984;2020;2021;tratada_cmsp
13572;35013572;ANA CANDIDA DE BARROS MOLINA PROFESSORA;SAO JOSE DOS CAMPOS;VILA INDUSTRIAL;SAO JOSE DOS CAMPOS;SAO JOSE DOS CAMPOS;Urbana;12220280;-23.18020058;-45.85940933;5,49;1;2020-05-27;83548497;2020;2021;tratada_cmsp
13584;35013584;PEDRO MAZZA PROFESSOR;SAO JOSE DOS CAMPOS;JARDIM DA GRANJA;SAO JOSE DOS CAMPOS;SAO JOSE DOS CAMPOS;Urbana;12227200;-23.20170975;-45.85739136;5,3;1;2020-05-27;146249902;2020;2021;tratada_cmsp
13596;35013596;PEDRO MASCARENHAS DOUTOR;EUGENIO DE MELO;EUGENIO DE MELLO;SAO JOSE DOS CAMPOS;SAO JOSE DOS CAMPOS;Urbana;12247000;-23.14084053;-45.78548813;5,28;1;2020-05-27;64488825;2020;2021;tratada_cmsp
13602;35013602;EUCLIDES BUENO MIRAGAIA;SAO JOSE DOS CAMPOS;VILA NAIR;SAO JOSE DOS CAMPOS;SAO JOSE DOS CAMPOS;Urbana;12231590;-23.21820068;-45.88000107;4,88;1;2020-05-27;33163895;2020;2021;tratada_cmsp
13626;35013626;OLIMPIO CATAO;SAO JOSE DOS CAMPOS;CENTRO;SAO JOSE DOS CAMPOS;SAO JOSE DOS CAMPOS;Urbana;12210090;-23.18380928;-45.88727951;5,07;1;2020-05-27;148580532;2020;2021;tratada_cmsp
1363;35001363;SAO PAULO;SE;BRAS;SAO PAULO;CENTRO;Urbana;3003000;-23.54734612;-46.62769318;4,83;1;2020-05-27;15694403;2020;2021;tratada_cmsp
13638;35013638;FRANCISCO JOAO LEME;SAO JOSE DOS CAMPOS;ALTO DA PONTE;SAO JOSE DOS CAMPOS;SAO JOSE DOS CAMPOS;Urbana;12212380;-23.15063095;-45.90248871;4,93;1;2020-05-28;33109421;2020;2021;tratada_cmsp
13648;35013648;YOSHIYA TAKAOKA;SAO JOSE DOS CAMPOS;VILA PAIVA;SAO JOSE DOS CAMPOS;SAO JOSE DOS CAMPOS;Urbana;12213350;-23.14129066;-45.91114044;5,13;1;2020-05-27;45113500;2020;2021;tratada_cmsp
13651;35013651;SANT ANA DO PARAIBA;SAO JOSE DOS CAMPOS;SANTANA;SAO JOSE DOS CAMPOS;SAO JOSE DOS CAMPOS;Urbana;12211740;-23.1591301;-45.89662933;5,29;1;2020-05-27;28758271;2020;2021;tratada_cmsp
13687;35013687;FRANCISCO GOMES DA SILVA PRADO DR;JACAREI;CENTRO;JACAREI;JACAREI;Urbana;12308001;-23.30240059;-45.95830154;5,07;1;2020-05-27;57700168;2020;2021;tratada_cmsp
13699;35013699;JOAQUIM FRANCO DE ALMEIDA CORONEL;JAMBEIRO;CENTRO;JAMBEIRO;TAUBATE;Urbana;12270000;-23.25447655;-45.69338608;5,15;1;2020-05-28;12592040;2020;2021;tratada_cmsp
13705;35013705;HERMINIA SILVA DE MESQUITA PROFA;JACAREI;PARQUE ITAMARATI;JACAREI;JACAREI;Urbana;12307200;-23.29190063;-45.95679855;5,42;1;2020-05-27;197971353;2020;2021;tratada_cmsp
13730;35013730;ARMANDO D OLIVEIRA COBRA;SAO FRANCISCO XAVIER;CENTRO DISTRITO DE SAO FRANCISCO XAVIER;SAO JOSE DOS CAMPOS;SAO JOSE DOS CAMPOS;Urbana;12249000;-22.9113903;-45.96022034;4,86;1;2020-05-27;7222346;2020;2021;tratada_cmsp
1375;35001375;LOUREIRO JUNIOR PROFESSOR;BELEM;QUARTA PARADA;SAO PAULO;LESTE 5;Urbana;3303000;-23.54380035;-46.58124924;5,33;1;2020-05-27;14613316;2020;2021;tratada_cmsp
13754;35013754;MARIA LUIZA DE GUIMARAES MEDEIROS PROFESSORA;SAO JOSE DOS CAMPOS;SANTANA;SAO JOSE DOS CAMPOS;SAO JOSE DOS CAMPOS;Urbana;12212200;-23.16282082;-45.89915085;5,07;1;2020-05-27;51111240;2020;2021;tratada_cmsp
13778;35013778;WILMA RAGAZZI BOCCARDO PROFESSORA;SAO JOSE DOS CAMPOS;PARQUE INDUSTRIAL;SAO JOSE DOS CAMPOS;SAO JOSE DOS CAMPOS;Urbana;12235681;-23.25452995;-45.91547012;5,54;1;2020-05-27;185729466;2020;2021;tratada_cmsp
13785;35013785;CARLOS PORTO CORONEL;JACAREI;CENTRO;JACAREI;JACAREI;Urbana;12327020;-23.30699921;-45.97230148;5,43;1;2020-05-27;216743117;2020;2021;tratada_cmsp
13791;35013791;MAURICIO ANISSE CURY DOUTOR;SAO JOSE DOS CAMPOS;JARDIM SAO DIMAS;SAO JOSE DOS CAMPOS;SAO JOSE DOS CAMPOS;Urbana;12245001;-23.2003994;-45.88909912;5,3;1;2020-05-27;38864681;2020;2021;tratada_cmsp
13808;35013808;POMPILIO MERCADANTE DR;JACAREI;SAO JOAO;JACAREI;JACAREI;Urbana;12322470;-23.31049919;-45.98509979;5,44;1;2020-05-27;234233696;2020;2021;tratada_cmsp
13812;35013812;DOROTHOVEO GASPAR VIANNA PROF;JACAREI;JARDIM DAS INDUSTRIAS;JACAREI;JACAREI;Urbana;12306020;-23.29299927;-45.95080185;5,25;1;2020-05-27;149837455;2020;2021;tratada_cmsp
13821;35013821;JOAO FELICIANO;JACAREI;CENTRO;JACAREI;JACAREI;Urbana;12308420;-23.30509949;-45.9612999;5,27;1;2020-05-27;98776686;2020;2021;tratada_cmsp
13845;35013845;ANTONIO JOSE DE SIQUEIRA PROF;SAO SILVESTRE DE JACAREI;SAO SILVESTRE;JACAREI;JACAREI;Urbana;12340010;-23.36495018;-46.02531052;5,3;1;2020-05-27;111100854;2020;2021;tratada_cmsp
13869;35013869;JOSE MARIOTTO FERREIRA MAJOR AVIADOR;SAO JOSE DOS CAMPOS;VILA DAS ACACIAS;SAO JOSE DOS CAMPOS;SAO JOSE DOS CAMPOS;Urbana;12228530;-23.20544052;-45.8822403;5,92;1;2020-05-27;146745256;2020;2021;tratada_cmsp
1387;35001387;THEODORO DE MORAES PROFESSOR;AGUA RASA;VILA REGENTE FEIJO;SAO PAULO;LESTE 5;Urbana;3342000;-23.55806923;-46.57337952;5,53;1;2020-05-28;28997518;2020;2021;tratada_cmsp
13882;35013882;EDUARDO JOSE DE CAMARGO CORONEL;PARAIBUNA;CENTRO;PARAIBUNA;TAUBATE;Urbana;12260000;-23.39068031;-45.66062927;5,11;1;2020-05-27;94854790;2020;2021;tratada_cmsp
13894;35013894;SUELY ANTUNES DE MELLO PROFESSORA;SAO JOSE DOS CAMPOS;CENTRO;SAO JOSE DOS CAMPOS;SAO JOSE DOS CAMPOS;Urbana;12210250;-23.17881966;-45.87870026;5,55;1;2020-05-27;34711552;2020;2021;tratada_cmsp
139;35000139;MARIANO DE OLIVEIRA PROFESSOR;PIRITUBA;VILA PEREIRA BARRETO;SAO PAULO;NORTE 1;Urbana;2919100;-23.49102974;-46.71562958;5,29;1;2020-05-27;167842729;2020;2021;tratada_cmsp
13912;35013912;RONDON MARECHAL;SAO JOSE DOS CAMPOS;MONTE CASTELO;SAO JOSE DOS CAMPOS;SAO JOSE DOS CAMPOS;Urbana;12215170;-23.18382072;-45.87435913;5,63;1;2020-05-27;90982703;2020;2021;tratada_cmsp
13924;35013924;RUI RODRIGUES DORIA DOUTOR;SAO JOSE DOS CAMPOS;VILA ALEXANDRINA;SAO JOSE DOS CAMPOS;SAO JOSE DOS CAMPOS;Urbana;12211290;-23.16202927;-45.8941803;5,33;1;2020-05-27;51797126;2020;2021;tratada_cmsp
13936;35013936;FRANCISCO PEREIRA DA SILVA PROFESSOR;SAO JOSE DOS CAMPOS;VILA TATETUBA;SAO JOSE DOS CAMPOS;SAO JOSE DOS CAMPOS;Urbana;12220190;-23.18325043;-45.85390091;5,49;1;2020-05-27;89246460;2020;2021;tratada_cmsp
13948;35013948;JOAO CURSINO;SAO JOSE DOS CAMPOS;JARDIM SAO DIMAS;SAO JOSE DOS CAMPOS;SAO JOSE DOS CAMPOS;Urbana;12245001;-23.20000076;-45.88909912;5,39;1;2020-05-27;56239731;2020;2021;tratada_cmsp
13959;35013959;BENEDITO RAMOS ARANTES CEL;IGARATA;CENTRO;IGARATA;JACAREI;Urbana;12350000;-23.20709991;-46.15309906;5,08;1;2020-05-27;154691128;2020;2021;tratada_cmsp
13973;35013973;DIRCEU JUNQUEIRA DE SOUZA PROF;JACAREI;JARDIM NOVA ESPERANCA;JACAREI;JACAREI;Urbana;12324450;-23.30940056;-46.00899887;5,09;1;2020-05-27;102744154;2020;2021;tratada_cmsp
13985;35013985;CERQUEIRA CESAR DOUTOR;PARAIBUNA;CENTRO;PARAIBUNA;TAUBATE;Urbana;12260000;-23.3852005;-45.66350174;5,01;1;2020-05-27;160024559;2020;2021;tratada_cmsp
1399;35001399;PAULO MONTE SERRAT PROFESSOR;AGUA RASA;VILA CANERO;SAO PAULO;LESTE 5;Urbana;3191130;-23.56764984;-46.57069016;5,5;1;2020-05-28;43466514;2020;2021;tratada_cmsp
140;35000140;SILVIO XAVIER ANTUNES PROFESSOR;PIRITUBA;PIQUERI;SAO PAULO;NORTE 1;Urbana;2913100;-23.50185966;-46.71319962;5,17;1;2020-05-27;69984562;2020;2021;tratada_cmsp
14000;35014000;CESAR COSTA DEPUTADO;QUIRIRIM;QUIRIRIM;TAUBATE;TAUBATE;Urbana;12043380;-23.02684021;-45.62545013;5,41;1;2020-05-27;306080279;2020;2021;tratada_cmsp
14011;35014011;ROQUE DE CASTRO REIS PROFESSOR;TAUBATE;VILA REGEDOR;TAUBATE;TAUBATE;Urbana;12090800;-23.04770088;-45.55920029;5,23;1;2020-05-27;39246949;2020;2021;tratada_cmsp
14023;35014023;JOAO ALVES MONSENHOR;TAUBATE;VILA SAO JOSE;TAUBATE;TAUBATE;Urbana;12070450;-23.01032066;-45.54896927;5,41;1;2020-05-27;34587343;2020;2021;tratada_cmsp
1405;35001405;ROMAO PUIGARI;BRAS;BRAS;SAO PAULO;CENTRO;Urbana;3002000;-23.54573059;-46.62112045;4,74;1;2020-05-27;60411714;2020;2021;tratada_cmsp
14060;35014060;FRANCISCA MOURA LUZ PEREIRA PROFESSORA;CACAPAVA;SANTA LUZIA;CACAPAVA;TAUBATE;Rural;12286717;-23.12807083;-45.75056076;4,71;1;2020-05-28;24129966;2020;2021;tratada_cmsp
14072;35014072;QUEIROZ CORONEL;REDENCAO DA SERRA;CENTRO;REDENCAO DA SERRA;TAUBATE;Urbana;12170000;-23.28138924;-45.53527069;5;1;2020-05-27;5832415;2020;2021;tratada_cmsp
14084;35014084;JOAO GONCALVES BARBOSA PROFESSOR;CACAPAVA;CENTRO;CACAPAVA;TAUBATE;Urbana;12281630;-23.10059929;-45.70470047;5,45;1;2020-05-27;203314111;2020;2021;tratada_cmsp
14096;35014096;FIGUEIRA DE TOLEDO;NATIVIDADE DA SERRA;CENTRO;NATIVIDADE DA SERRA;TAUBATE;Urbana;12180000;-23.37597275;-45.44542694;4,59;1;2020-05-27;57528096;2020;2021;tratada_cmsp
14126;35014126;JACQUES FELIX;TAUBATE;VILA IAPI;TAUBATE;TAUBATE;Urbana;12060000;-23.01399994;-45.56900024;5,48;1;2020-05-27;64824479;2020;2021;tratada_cmsp
14148;35014148;JOSE DE MOURA REZENDE MINISTRO;CACAPAVA;VILA SANTOS;CACAPAVA;TAUBATE;Urbana;12280015;-23.09320068;-45.69960022;5,33;1;2020-05-27;67692866;2020;2021;tratada_cmsp
1417;35001417;ISAI LEIRNER;AGUA RASA;VILA INVERNADA;SAO PAULO;LESTE 5;Urbana;3349030;-23.56753922;-46.5652504;5,04;1;2020-05-27;60416875;2020;2021;tratada_cmsp
14175;35014175;AMADOR BUENO DA VEIGA;TAUBATE;PARQUE SANTO ANTONIO;TAUBATE;TAUBATE;Urbana;12061340;-23.00317955;-45.56100845;5,27;1;2020-05-27;12416211;2020;2021;tratada_cmsp
14187;35014187;AMALIA GARCIA RIBEIRO PATTO PROFESSORA;TREMEMBE;LOTEAMENTO JARDIM SANTANA;TREMEMBE;PINDAMONHANGABA;Urbana;12122018;-22.97448921;-45.5464592;5,55;1;2020-05-27;30566487;2020;2021;tratada_cmsp
14217;35014217;BERNARDINO QUERIDO PROFESSOR;TAUBATE;PARQUE AEROPORTO;TAUBATE;TAUBATE;Urbana;12051170;-23.01490021;-45.58470154;5,38;1;2020-05-27;49197663;2020;2021;tratada_cmsp
14230;35014230;MANUEL CABRAL;TREMEMBE;CENTRO;TREMEMBE;PINDAMONHANGABA;Urbana;12120008;-22.96232033;-45.54487991;5,3;1;2020-05-27;154696160;2020;2021;tratada_cmsp
14254;35014254;MONTEIRO LOBATO;TAUBATE;JARDIM MARIA AUGUSTA;TAUBATE;TAUBATE;Urbana;12080480;-23.02799988;-45.54700089;5,6;1;2020-05-27;27208677;2020;2021;tratada_cmsp
14266;35014266;URBANO ALVES DE SOUZA PEREIRA ENGENHEIRO;TAUBATE;JARDIM INDEPENDENCIA;TAUBATE;TAUBATE;Urbana;12031580;-23.03470039;-45.58190155;5,57;1;2020-05-27;151921904;2020;2021;tratada_cmsp
14278;35014278;ANTONIO MAGALHAES BASTOS;TAUBATE;ALTO SAO PEDRO;TAUBATE;TAUBATE;Urbana;12082250;-23.03490067;-45.54759979;5,32;1;2020-05-27;43425448;2020;2021;tratada_cmsp
14285;35014285;MARIO CARDOSO FRANCO PROFESSOR;TAUBATE;CIDADE DE DEUS;TAUBATE;TAUBATE;Urbana;12091400;-23.0461998;-45.56972122;5,41;1;2020-05-27;71076037;2020;2021;tratada_cmsp
14291;35014291;NEWTON CAMARA LEAL BARROS;TAUBATE;JARDIM GURILANDIA;TAUBATE;TAUBATE;Urbana;12071400;-22.99835968;-45.5291214;5,39;1;2020-05-27;48983959;2020;2021;tratada_cmsp
1430;35001430;ANDRE OHL;AGUA RASA;VILA REGENTE FEIJO;SAO PAULO;LESTE 5;Urbana;3345000;-23.57394028;-46.55791092;5,55;1;2020-05-27;181532556;2020;2021;tratada_cmsp
14312;35014312;DIOGENES RIBEIRO DE LIMA;RIBEIRA;CENTRO;RIBEIRA;APIAI;Urbana;18380000;-24.65779114;-49.00632858;4,96;1;2020-05-27;25995833;2020;2021;tratada_cmsp
14321;35014321;NASCIMENTO SATIRO DA SILVA;IPORANGA;CENTRO;IPORANGA;APIAI;Urbana;18330000;-24.58750916;-48.59700775;4,75;1;2020-05-27;11329123;2020;2021;tratada_cmsp
14333;35014333;JOAO ANTUNES ALEXANDRE;GUAPIARA;JARDIM CANUTO;GUAPIARA;APIAI;Urbana;18310000;-24.18852997;-48.53065872;4,77;1;2020-05-27;54096034;2020;2021;tratada_cmsp
14345;35014345;ELIAS LAGES DE MAGALHAES PROF;ITAOCA;CENTRO;ITAOCA;APIAI;Urbana;18360000;-24.63993073;-48.84325027;4,61;1;2020-05-27;14745477;2020;2021;tratada_cmsp
14357;35014357;REGINA DIAS ANTUNES DA SILVA PROFA;APIAI;SANTA BARBARA;APIAI;APIAI;Urbana;18320000;-24.51098442;-48.84873581;5,23;1;2020-05-27;186976781;2020;2021;tratada_cmsp
14369;35014369;LUIZ JOSE DIAS PROF;RIBEIRAO BRANCO;CENTRO;RIBEIRAO BRANCO;APIAI;Urbana;18430000;-24.21940041;-48.7655983;4,77;1;2020-05-27;13935585;2020;2021;tratada_cmsp
14370;35014370;ANTONIA BAPTISTA CALAZANS LUZ PROFA;APIAI;CENTRO;APIAI;APIAI;Urbana;18320000;-24.51038933;-48.84482956;5,04;1;2020-05-27;13316522;2020;2021;tratada_cmsp
14394;35014394;THEREZINHA SACCOMANO PASSARO PROFA;GUAPIARA;CENTRO;GUAPIARA;APIAI;Urbana;18310000;-24.18540001;-48.52870178;5,1;1;2020-05-27;81388816;2020;2021;tratada_cmsp
14400;35014400;LUIZ DARLY GOMES DE ARAUJO PROFESSOR;BARRA DO TURVO;CENTRO;BARRA DO TURVO;REGISTRO;Urbana;11955000;-24.75733948;-48.50440216;4,54;1;2020-05-27;86887950;2020;2021;tratada_cmsp
14412;35014412;PAULO FRANCISCO DE ASSIS PROF;BARRA DO CHAPEU;CENTRO;BARRA DO CHAPEU;APIAI;Urbana;18325000;-24.47230148;-49.02560806;4,59;1;2020-05-27;12672424;2020;2021;tratada_cmsp
1442;35001442;ANDRE XAVIER GALLICHO PROFESSOR;AGUA RASA;MOOCA;SAO PAULO;LESTE 5;Urbana;3165002;-23.56188965;-46.58127975;5,35;1;2020-05-27;72052769;2020;2021;tratada_cmsp
14424;35014424;AMBROSINA DE OLIVEIRA MATTOS PROFA;ARACAIBA;DISTRITO DE ARACAIBA;APIAI;APIAI;Urbana;18320000;-24.42839241;-48.85219574;4,51;1;2020-05-27;21150012;2020;2021;tratada_cmsp
14448;35014448;DANUZIA DE SANTI PROFA;ITATINGA;CENTRO;ITATINGA;BOTUCATU;Urbana;18690039;-23.10354042;-48.61508942;5,2;1;2020-05-27;49456164;2020;2021;tratada_cmsp
14459;35014459;ANTONIO LUIZ DUARTE;PARANAPANEMA;CENTRO;PARANAPANEMA;ITAPETININGA;Urbana;18720000;-23.38374329;-48.72724152;5,05;1;2020-05-27;179881195;2020;2021;tratada_cmsp
14461;35014461;PAULO ARAUJO NOVAES DOUTOR;AVARE;AGUA BRANCA;AVARE;AVARE;Urbana;18700300;-23.10878944;-48.9275589;5,33;1;2020-05-27;132859348;2020;2021;tratada_cmsp
14473;35014473;ANTONIO TONON;CORONEL MACEDO;CENTRO;CORONEL MACEDO;ITARARE;Urbana;18745027;-23.63191605;-49.31245041;4,88;1;2020-05-27;107610848;2020;2021;tratada_cmsp
14485;35014485;JOAO MICHELIN;ITAI;CENTRO;ITAI;AVARE;Urbana;18730055;-23.42071915;-49.08990097;5,27;1;2020-05-27;157472616;2020;2021;tratada_cmsp
14497;35014497;JOAO CRUZ CORONEL;AVARE;CENTRO;AVARE;AVARE;Urbana;18705000;-23.09810066;-48.92789841;5,48;1;2020-05-27;205297470;2020;2021;tratada_cmsp
14503;35014503;PEDRO BENTO ALVES;ARANDU;CENTRO;ARANDU;AVARE;Urbana;18710011;-23.13536072;-49.05490112;5,09;1;2020-05-27;132200173;2020;2021;tratada_cmsp
14515;35014515;PAULO DELICIO;AGUAS DE SANTA BARBARA;CENTRO;AGUAS DE SANTA BARBARA;AVARE;Urbana;18770000;-22.88014984;-49.24160004;5,43;1;2020-05-27;286960062;2020;2021;tratada_cmsp
14527;35014527;JOSE LEITE PINHEIRO PROFESSOR;CERQUEIRA CESAR;CENTRO;CERQUEIRA CESAR;AVARE;Urbana;18760067;-23.03867912;-49.16378021;5,17;1;2020-05-27;379672017;2020;2021;tratada_cmsp
1454;35001454;ANTONIO FIRMINO DE PROENCA PROF;BRAS;MOOCA;SAO PAULO;CENTRO;Urbana;3103000;-23.55353928;-46.6216011;4,82;1;2020-05-27;730308267;2020;2021;tratada_cmsp
14540;35014540;JOSE PENNA;TAQUARITUBA;CENTRO;TAQUARITUBA;AVARE;Urbana;18740000;-23.53754044;-49.24906158;5,32;1;2020-05-27;83376681;2020;2021;tratada_cmsp
14552;35014552;AVELINO APARECIDO RIBEIRO DOUTOR;IARAS;CENTRO;IARAS;AVARE;Urbana;18775021;-22.87208557;-49.16275024;4,96;1;2020-05-27;26221964;2020;2021;tratada_cmsp
14588;35014588;JOAO TEIXEIRA DE ARAUJO PROFESSOR;AVARE;BRABANCIA;AVARE;AVARE;Urbana;18704410;-23.11790085;-48.93389893;5,37;1;2020-05-27;143431554;2020;2021;tratada_cmsp
14631;35014631;BENE ANDRADE DONA;AVARE;BRAZ II;AVARE;AVARE;Urbana;18701240;-23.10510063;-48.91296005;5,31;1;2020-05-27;97281319;2020;2021;tratada_cmsp
1466;35001466;AMADEU AMARAL;BELEM;BELENZINHO;SAO PAULO;LESTE 5;Urbana;3057040;-23.54129028;-46.59476089;5,03;1;2020-05-27;231663855;2020;2021;tratada_cmsp
14667;35014667;HOLAMBRA II;PARANAPANEMA;CAMPOS DE HOLAMBRA;PARANAPANEMA;ITAPETININGA;Rural;18725000;-23.44323158;-48.87886047;5,21;1;2020-05-27;20138634;2020;2021;tratada_cmsp
14679;35014679;MATILDE VIEIRA;AVARE;CENTRO;AVARE;AVARE;Urbana;18701053;-23.10172536;-48.92056438;5,73;1;2020-05-27;148529625;2020;2021;tratada_cmsp
14692;35014692;ANIZIO FERRAZ GODINHO PROF;CONCHAS;CENTRO;CONCHAS;BOTUCATU;Urbana;18570000;-23.01844978;-48.00994873;5,12;1;2020-05-27;106857705;2020;2021;tratada_cmsp
14746;35014746;VALENTIM DO AMARAL;ANHEMBI;CENTRO;ANHEMBI;BOTUCATU;Urbana;18630031;-22.78947067;-48.12770844;5,06;1;2020-05-27;15216469;2020;2021;tratada_cmsp
14761;35014761;NAPOLEAO CORULE;PARDINHO;CENTRO;PARDINHO;BOTUCATU;Urbana;18640039;-23.08279419;-48.37102509;5,35;1;2020-05-27;24353035;2020;2021;tratada_cmsp
14771;35014771;MANUEL JOSE CHAVES DR;SAO MANUEL;CENTRO;SAO MANUEL;BOTUCATU;Urbana;18650049;-22.73601913;-48.56739044;5,44;1;2020-05-27;59064866;2020;2021;tratada_cmsp
1478;35001478;EDUARDO PRADO;BRAS;BRAS;SAO PAULO;CENTRO;Urbana;3025000;-23.53726006;-46.61244965;4,91;1;2020-05-27;277782695;2020;2021;tratada_cmsp
14783;35014783;JOAO BATISTA DE CAMARGO BARROS CEL;CONCHAS;CENTRO;CONCHAS;BOTUCATU;Urbana;18570000;-23.0123806;-48.00630951;;0;;0;;0;nunca_tratada_cmsp
14795;35014795;LUCIO ANTUNES DE SOUZA DOM;BOTUCATU;VILA CARMELO;BOTUCATU;BOTUCATU;Urbana;18609510;-22.86898994;-48.45022964;5,44;1;2020-05-27;141064033;2020;2021;tratada_cmsp
14801;35014801;ANSELMO BERTONCINI;BOFETE;CENTRO;BOFETE;BOTUCATU;Urbana;18590000;-23.10467911;-48.26134872;5,17;1;2020-05-27;20574179;2020;2021;tratada_cmsp
14825;35014825;CARDOSO DE ALMEIDA;BOTUCATU;CENTRO;BOTUCATU;BOTUCATU;Urbana;18600011;-22.88454056;-48.4448204;5,54;1;2020-05-27;142705616;2020;2021;tratada_cmsp
14837;35014837;EUCLIDES DE CARVALHO CAMPOS PROF;BOTUCATU;VILA NOVA BOTUCATU;BOTUCATU;BOTUCATU;Urbana;18608224;-22.86687088;-48.45793915;5,44;1;2020-05-27;71361134;2020;2021;tratada_cmsp
14849;35014849;AMERICO VIRGINIO DOS SANTOS PROF;BOTUCATU;VILA SANTANA;BOTUCATU;BOTUCATU;Urbana;18606003;-22.89756966;-48.44787979;5,4;1;2020-05-27;105351801;2020;2021;tratada_cmsp
1485;35001485;GUERINO RASO;BELEM;QUARTA PARADA;SAO PAULO;LESTE 5;Urbana;3174000;-23.54700089;-46.59032059;4,95;1;2020-05-27;39382657;2020;2021;tratada_cmsp
14850;35014850;JOAO QUEIROZ MARQUES PROF;RUBIAO JUNIOR;DISTRITO DE RUBIAO JUNIOR;BOTUCATU;BOTUCATU;Urbana;18618002;-22.89992905;-48.49657059;5,19;1;2020-05-27;79944708;2020;2021;tratada_cmsp
148519;35148519;CENTRO ATEND SOCIOEDUC AO ADOLESCENTE DE MARILIA CIP;MARILIA;AMADEU AMARAL;MARILIA;MARILIA;Rural;17500970;-22.29942131;-50.0253334;;1;2021-06-17;23;2021;2021;tratada_cmsp
14862;35014862;RAYMUNDO CINTRA PROF;VITORIANA;VITORIANA;BOTUCATU;BOTUCATU;Urbana;18619028;-22.7811985;-48.39932251;5,02;1;2020-05-27;5603269;2020;2021;tratada_cmsp
14874;35014874;ARMANDO DE SALLES OLIVEIRA DR;BOTUCATU;JARDIM PEABIRU;BOTUCATU;BOTUCATU;Urbana;18611348;-22.87520027;-48.43334961;5,18;1;2020-05-27;40657135;2020;2021;tratada_cmsp
14886;35014886;JOSE PEDRETTI NETO PROF;BOTUCATU;JARDIM DONA NICOTA DE BARROS;BOTUCATU;BOTUCATU;Urbana;18611320;-22.88345909;-48.43635941;5,32;1;2020-05-27;63094527;2020;2021;tratada_cmsp
14904;35014904;PEDRO AUGUSTO BARRETO PROF;AREIOPOLIS;CENTRO;AREIOPOLIS;BOTUCATU;Urbana;18670025;-22.66781998;-48.6628685;5,13;1;2020-05-27;25568234;2020;2021;tratada_cmsp
1491;35001491;ANNA TEIXEIRA PRADO ZACHARIAS PROFESSORA;AGUA RASA;CHACARA MAFALDA;SAO PAULO;LESTE 5;Urbana;3370040;-23.57183075;-46.55953979;5,43;1;2020-05-27;212837355;2020;2021;tratada_cmsp
149317;35149317;JOSE SERGIO PEREIRA PROFESSOR;ITAPEVI;PARQUE SUBURBANO;ITAPEVI;ITAPEVI;Urbana;6663650;-23.56339073;-46.93030167;5,07;1;2020-05-27;228918975;2020;2021;tratada_cmsp
14941;35014941;PEDRO TORRES PROF;BOTUCATU;VILA SANTA TEREZINHA;BOTUCATU;BOTUCATU;Urbana;18602150;-22.90228081;-48.442379;5,43;1;2020-05-27;62790480;2020;2021;tratada_cmsp
14953;35014953;WALTER CARRER PROF;SAO MANUEL;CONJUNTO HABITACIONAL PROFESSOR JOSE INNOCENTI;SAO MANUEL;BOTUCATU;Urbana;18650774;-22.73451042;-48.54637909;5,09;1;2020-05-27;38635516;2020;2021;tratada_cmsp
14965;35014965;ATILIO INNOCENTI PROF;SAO MANUEL;VILA SANTA HELENA;SAO MANUEL;BOTUCATU;Urbana;18650166;-22.7259903;-48.57217026;5,68;1;2020-05-27;22685482;2020;2021;tratada_cmsp
14990;35014990;IVENS VIEIRA;ANGATUBA;CENTRO;ANGATUBA;ITAPETININGA;Urbana;18240000;-23.49405289;-48.41734314;5,18;1;2020-05-27;113508575;2020;2021;tratada_cmsp
15003;35015003;CASTANHO DE ALMEIDA CEL;GUAREI;CENTRO;GUAREI;ITAPETININGA;Urbana;18250000;-23.3738308;-48.18552017;5,22;1;2020-05-27;78530081;2020;2021;tratada_cmsp
15027;35015027;FORTUNATO DE CAMARGO DR;ANGATUBA;CENTRO;ANGATUBA;ITAPETININGA;Urbana;18240000;-23.49117088;-48.41339111;5,09;1;2020-05-28;31070934;2020;2021;tratada_cmsp
15039;35015039;BERNARDES JUNIOR DESEMBARGADOR;ITAPETININGA;VILA ARRUDA;ITAPETININGA;ITAPETININGA;Urbana;18212198;-23.57506943;-48.04042816;4,94;1;2020-05-27;76250059;2020;2021;tratada_cmsp
15040;35015040;PEIXOTO GOMIDE;ITAPETININGA;CENTRO;ITAPETININGA;ITAPETININGA;Urbana;18200160;-23.58720016;-48.04750061;5,27;1;2020-05-27;259323153;2020;2021;tratada_cmsp
15052;35015052;SEBASTIAO VILLACA PROF;ITAPETININGA;VILA RIO BRANCO;ITAPETININGA;ITAPETININGA;Urbana;18208080;-23.59041977;-48.06747818;5,16;1;2020-05-27;124146108;2020;2021;tratada_cmsp
15064;35015064;FERNANDO PRESTES CEL;ITAPETININGA;CENTRO;ITAPETININGA;ITAPETININGA;Urbana;18200160;-23.58645058;-48.04764938;5,39;1;2020-05-27;142252316;2020;2021;tratada_cmsp
15076;35015076;OSCAR KURTZ CAMARGO;RIBEIRAO GRANDE;CENTRO;RIBEIRAO GRANDE;ITAPEVA;Urbana;18315000;-24.10257912;-48.36647034;4,82;1;2020-05-27;25653532;2020;2021;tratada_cmsp
1508;35001508;ANTONIO DE QUEIROZ TELLES DOUTOR;BELEM;ALTO DA MOOCA;SAO PAULO;LESTE 5;Urbana;3178000;-23.55213928;-46.58560944;5,34;1;2020-05-28;47716370;2020;2021;tratada_cmsp
15088;35015088;ADHERBAL DE PAULA FERREIRA;ITAPETININGA;CENTRO;ITAPETININGA;ITAPETININGA;Urbana;18200160;-23.58769989;-48.04735184;5,58;1;2020-05-27;91043789;2020;2021;tratada_cmsp
15097;35015097;SEBASTIAO PINTO PROF;ITAPETININGA;VILA SANTANA;ITAPETININGA;ITAPETININGA;Urbana;18210026;-23.58041;-48.05289078;5,23;1;2020-05-28;129007401;2020;2021;tratada_cmsp
15106;35015106;ABILIO FONTES PROF;ITAPETININGA;VILA ROSA;ITAPETININGA;ITAPETININGA;Urbana;18200560;-23.59473991;-48.04608917;5,54;1;2020-05-27;137003757;2020;2021;tratada_cmsp
15118;35015118;ARLINDO VIEIRA PADRE;CAPAO BONITO;CENTRO;CAPAO BONITO;ITAPEVA;Urbana;18300410;-23.99832916;-48.35128021;4,97;1;2020-05-27;93216652;2020;2021;tratada_cmsp
1512;35001512;ARMANDO ARAUJO;MOOCA;MOOCA;SAO PAULO;CENTRO SUL;Urbana;3167060;-23.5566597;-46.59716034;5,31;1;2020-05-27;284685104;2020;2021;tratada_cmsp
15124;35015124;FLORA PRESTES CESAR PROFA;SARAPUI;CENTRO;SARAPUI;ITAPETININGA;Urbana;18225000;-23.64209938;-47.8266983;5,15;1;2020-05-27;88513555;2020;2021;tratada_cmsp
15143;35015143;DARCY VIEIRA;ITAPETININGA;VILA BARTH;ITAPETININGA;ITAPETININGA;Urbana;18205590;-23.59985924;-48.05147934;5,31;1;2020-05-27;209214044;2020;2021;tratada_cmsp
15155;35015155;VIRGILIO SILVEIRA PROF;RECHAN;RECHA;ITAPETININGA;ITAPETININGA;Rural;18217000;-23.5991;-48.3148;5,07;1;2020-05-27;59890851;2020;2021;tratada_cmsp
15180;35015180;CORINA CACAPAVA BARTH PROFA;ITAPETININGA;VILA JUDITH;ITAPETININGA;ITAPETININGA;Urbana;18200358;-23.57740021;-48.03139877;5,25;1;2020-05-27;290729215;2020;2021;tratada_cmsp
15192;35015192;FONSECA MAJOR;ITAPETININGA;CENTRO;ITAPETININGA;ITAPETININGA;Urbana;18200013;-23.59149933;-48.05390167;5,9;1;2020-05-27;77703018;2020;2021;tratada_cmsp
152;35000152;OCTAVIO MONTEIRO DE CASTRO PROFESSOR;SAO DOMINGOS;VILA MANGALOT;SAO PAULO;NORTE 1;Urbana;5132110;-23.50489998;-46.74431992;5,31;1;2020-05-28;23925908;2020;2021;tratada_cmsp
15209;35015209;ERNESTA XAVIER RABELO ORSI PROFA;ITAPETININGA;JARDIM ITALIA;ITAPETININGA;ITAPETININGA;Urbana;18201600;-23.58974075;-48.03475952;5,5;1;2020-05-27;64641233;2020;2021;tratada_cmsp
1521;35001521;PAULO LUIG FREI;PARI;PARI;SAO PAULO;CENTRO;Urbana;3028001;-23.52545929;-46.61064148;5,13;1;2020-05-27;160965941;2020;2021;tratada_cmsp
15210;35015210;RENATO DA ROCHA MIRANDA;CAMPINA DO MONTE ALEGRE;CENTRO;CAMPINA DO MONTE ALEGRE;ITAPETININGA;Urbana;18245000;-23.59074974;-48.47735977;5,01;1;2020-05-27;14970853;2020;2021;tratada_cmsp
15222;35015222;RAUL VENTURELLI DOUTOR;CAPAO BONITO;JARDIM CRUZEIRO;CAPAO BONITO;ITAPEVA;Urbana;18305485;-24.00930977;-48.34313965;4,97;1;2020-05-27;67946687;2020;2021;tratada_cmsp
15246;35015246;MODESTO TAVARES DE LIMA PROF;ITAPETININGA;JARDIM PAULISTA;ITAPETININGA;ITAPETININGA;Urbana;18214385;-23.58082962;-48.02978897;5,01;1;2020-05-27;92687760;2020;2021;tratada_cmsp
15258;35015258;NESTOR FOGACA;SAO MIGUEL ARCANJO;CENTRO;SAO MIGUEL ARCANJO;ITAPETININGA;Urbana;18230000;-23.88396072;-47.99534988;4,96;1;2020-05-27;26872339;2020;2021;tratada_cmsp
15261;35015261;LAZARO SOARES PROFESSOR;RIVERSUL;CENTRO;RIVERSUL;ITARARE;Urbana;18470015;-23.826931;-49.43463516;4,84;1;2020-05-27;111412978;2020;2021;tratada_cmsp
15283;35015283;APARICIO BIGLIA FILHO PROFESSOR;BOM SUCESSO DE ITARARE;CENTRO;BOM SUCESSO DE ITARARE;ITARARE;Urbana;18475011;-24.3189888;-49.14250565;4,68;1;2020-05-27;39522770;2020;2021;tratada_cmsp
15301;35015301;EPAMINONDAS FERREIRA LOBO DOUTOR;ITARARE;VILA OSORIO;ITARARE;ITARARE;Urbana;18462056;-24.10913086;-49.33399963;5,47;1;2020-05-27;155297182;2020;2021;tratada_cmsp
15313;35015313;HERCULANO PIMENTEL DOUTOR;ITARARE;CENTRO;ITARARE;ITARARE;Urbana;18460009;-24.11166573;-49.32314301;5,31;1;2020-05-27;427933696;2020;2021;tratada_cmsp
15325;35015325;TOME TEIXEIRA;ITARARE;CENTRO;ITARARE;ITARARE;Urbana;18460007;-24.11577988;-49.33880997;5,22;1;2020-05-27;119492727;2020;2021;tratada_cmsp
15337;35015337;HEITOR GUIMARAES CORTES;ITARARE;CRUZEIRO;ITARARE;ITARARE;Urbana;18460310;-24.11026955;-49.34270859;4,7;1;2020-05-27;46977994;2020;2021;tratada_cmsp
15362;35015362;EPITACIO PESSOA;ITAPORANGA;CENTRO;ITAPORANGA;ITARARE;Urbana;18480017;-23.70541191;-49.48823547;5,08;1;2020-05-27;170902648;2020;2021;tratada_cmsp
15404;35015404;OTAVIO FERRARI;ITAPEVA;CENTRO;ITAPEVA;ITAPEVA;Urbana;18400170;-23.98962975;-48.87842178;4,54;1;2020-05-27;37624824;2020;2021;tratada_cmsp
15428;35015428;SIMPLICIANO CAMPOLIM DE ALMEIDA;NOVA CAMPINA;CENTRO;NOVA CAMPINA;ITAPEVA;Urbana;18435000;-24.11902237;-48.9053421;4,69;1;2020-05-27;63718222;2020;2021;tratada_cmsp
15436;35015436;BARBARA VIDAL CESAR;TURIBA DO SUL;CENTRO TURIBA DO SUL;ITABERA;ITARARE;Rural;18450028;-23.76246262;-49.27296448;4,87;1;2020-05-27;11608534;2020;2021;tratada_cmsp
15441;35015441;GABRIEL PINTO DE FARIA PROFESSOR;ITABERA;CENTRO;ITABERA;ITARARE;Urbana;18440000;-23.86286926;-49.13700867;5,41;1;2020-05-27;69961450;2020;2021;tratada_cmsp
1545;35001545;PANDIA CALOGERAS;MOOCA;MOOCA;SAO PAULO;CENTRO SUL;Urbana;3115020;-23.56455994;-46.5961113;5,46;1;2020-05-27;113959137;2020;2021;tratada_cmsp
15453;35015453;LEONCIO PIMENTEL;ITABERA;CENTRO;ITABERA;ITARARE;Urbana;18440001;-23.86509895;-49.14062119;4,94;1;2020-05-27;49635733;2020;2021;tratada_cmsp
15477;35015477;JEMINIANO DAVID MUZEL;ITAPEVA;JARDIM EUROPA;ITAPEVA;ITAPEVA;Urbana;18406470;-23.99518013;-48.89139175;5,06;1;2020-05-27;60297206;2020;2021;tratada_cmsp
15489;35015489;NICOTA SOARES PROFESSORA;ITAPEVA;JARDIM BELVEDERE;ITAPEVA;ITAPEVA;Urbana;18401425;-23.97514915;-48.87265015;4,77;1;2020-05-27;33922733;2020;2021;tratada_cmsp
15519;35015519;JOSE VASQUES FERRARI PROFESSOR;ITAPEVA;PARQUE CIMENTOLANDIA;ITAPEVA;ITAPEVA;Urbana;18409620;-23.98081017;-48.89413834;4,94;1;2020-05-27;63731985;2020;2021;tratada_cmsp
15544;35015544;ZULMIRA DE OLIVEIRA PROFESSORA;ITAPEVA;VILA BOM JESUS;ITAPEVA;ITAPEVA;Urbana;18400690;-23.97569084;-48.87813187;5,14;1;2020-05-27;92666883;2020;2021;tratada_cmsp
15568;35015568;FRANCELINA FRANCO PROFESSORA;BURI;CENTRO;BURI;ITAPEVA;Urbana;18290000;-23.79871941;-48.60377884;4,88;1;2020-05-27;94399508;2020;2021;tratada_cmsp
1557;35001557;BENEDITO MATARAZZO DEPUTADO;SAO JOSE DOS CAMPOS;JARDIM AMERICA;SAO JOSE DOS CAMPOS;SAO JOSE DOS CAMPOS;Urbana;12235430;-23.23509026;-45.9021492;5,63;1;2020-05-27;225018094;2020;2021;tratada_cmsp
15581;35015581;SANDRA REGINA PIRES PROFESSORA;BARAO DE ANTONINA;CENTRO;BARAO DE ANTONINA;ITARARE;Urbana;18490001;-23.62604523;-49.5655899;4,97;1;2020-05-27;129216190;2020;2021;tratada_cmsp
15600;35015600;CAETANO CARBONE PROFESSOR;ITARARE;SANTA TEREZINHA;ITARARE;ITARARE;Urbana;18466050;-24.12050247;-49.33254623;4,74;1;2020-05-27;55988454;2020;2021;tratada_cmsp
15611;35015611;EUGENIO EUCLYDES PEREIRA DA MOTTA CORONEL;PORTO FELIZ;JARDIM BRASIL;PORTO FELIZ;ITU;Urbana;18540550;-23.22981644;-47.52496719;5,46;1;2020-05-27;89372909;2020;2021;tratada_cmsp
15635;35015635;PAULA SANTOS PROF;SALTO;VILA NOVA;SALTO;ITU;Urbana;13322010;-23.20050049;-47.28730011;5,54;1;2020-05-27;106659476;2020;2021;tratada_cmsp
15647;35015647;LEONOR FERNANDES DA SILVA PROFA;SALTO;VILA TEIXEIRA;SALTO;ITU;Urbana;13320271;-23.19809914;-47.29978943;5,64;1;2020-05-27;189966637;2020;2021;tratada_cmsp
15660;35015660;FRANCISCO NARDY FILHO;ITU;VILA LEIS;ITU;ITU;Urbana;13309210;-23.28009987;-47.28633881;5,29;1;2020-05-27;146240867;2020;2021;tratada_cmsp
15672;35015672;CICERO SIQUEIRA CAMPOS PROF;ITU;JARDIM ALBERTO GOMES;ITU;ITU;Urbana;13311170;-23.26013947;-47.31076813;5,28;1;2020-05-27;155777313;2020;2021;tratada_cmsp
1569;35001569;OSWALDO CRUZ;MOOCA;MOOCA;SAO PAULO;CENTRO SUL;Urbana;3103003;-23.55497742;-46.60394669;5,38;1;2020-05-27;150730298;2020;2021;tratada_cmsp
15696;35015696;JOSE LEITE PINHEIRO JR PROF;ITU;BRASIL;ITU;ITU;Urbana;13301499;-23.25997925;-47.28989029;5,28;1;2020-05-27;118622048;2020;2021;tratada_cmsp
1570;35001570;ORESTES GUIMARAES;PARI;CANINDE;SAO PAULO;CENTRO;Urbana;3033000;-23.53323936;-46.62405014;4,78;1;2020-05-27;322799928;2020;2021;tratada_cmsp
15702;35015702;ANTONIO BERRETA PROF;ITU;VILA GATTI;ITU;ITU;Urbana;13300340;-23.27079964;-47.30080032;5,62;1;2020-05-27;73922091;2020;2021;tratada_cmsp
15714;35015714;SECKLER MONSENHOR;PORTO FELIZ;CENTRO;PORTO FELIZ;ITU;Urbana;18540075;-23.21036911;-47.52029037;5,51;1;2020-05-27;66070672;2020;2021;tratada_cmsp
15726;35015726;PEDRO FERNANDES DE CAMARGO PROF;PORTO FELIZ;VILA MARTELLI;PORTO FELIZ;ITU;Urbana;18542242;-23.19903564;-47.52500916;5,39;1;2020-05-27;31319647;2020;2021;tratada_cmsp
15748;35015748;REGENTE FEIJO;ITU;CENTRO;ITU;ITU;Urbana;13300170;-23.26441956;-47.30075455;5,51;1;2020-05-27;165120022;2020;2021;tratada_cmsp
15751;35015751;CLAUDIO RIBEIRO DA SILVA PROF;SALTO;VILA TEIXEIRA;SALTO;ITU;Urbana;13320299;-23.20120049;-47.2969017;5,58;1;2020-05-27;86758290;2020;2021;tratada_cmsp
15763;35015763;TANCREDO DO AMARAL;SALTO;CENTRO;SALTO;ITU;Urbana;13320240;-23.2057991;-47.29047012;5,59;1;2020-05-27;81241579;2020;2021;tratada_cmsp
15787;35015787;CESARIO MOTTA DR;ITU;CENTRO;ITU;ITU;Urbana;13300030;-23.2603;-47.3059;5,62;1;2020-05-27;136031103;2020;2021;tratada_cmsp
15799;35015799;VITORIO TOGNI CAPITAO;CABREUVA;JACARE;CABREUVA;ITU;Urbana;13318012;-23.23862076;-47.06003189;5,62;1;2020-05-27;565869508;2020;2021;tratada_cmsp
15805;35015805;LUCIDIO MOTTA NAVARRO;CABREUVA;CENTRO;CABREUVA;ITU;Urbana;13315045;-23.30849075;-47.13130188;5,12;1;2020-05-27;180143064;2020;2021;tratada_cmsp
15817;35015817;ACYLINO AMARAL GURGEL PROF;SALTO;BELA VISTA;SALTO;ITU;Urbana;13321370;-23.1919899;-47.29021835;5,37;1;2020-05-27;121594852;2020;2021;tratada_cmsp
1582;35001582;DOMINGOS FAUSTINO SARMIENTO;BELEM;BRAS;SAO PAULO;LESTE 5;Urbana;3047000;-23.54226875;-46.60572052;4,81;1;2020-05-27;141686039;2020;2021;tratada_cmsp
15830;35015830;HORACIO MANLEY LANE;SAO ROQUE;CENTRO;SAO ROQUE;SAO ROQUE;Urbana;18130290;-23.5327301;-47.13965988;5,22;1;2020-05-27;227780849;2020;2021;tratada_cmsp
15854;35015854;FREDERICO MARCICANO;IBIUNA;RESSACA;IBIUNA;SAO ROQUE;Rural;18150000;-23.67300034;-47.29990005;5,2;1;2020-05-27;85700178;2020;2021;tratada_cmsp
15891;35015891;GERMANO NEGRINI PROFESSOR;SAO ROQUE;JARDIM VILLACA;SAO ROQUE;SAO ROQUE;Urbana;18135150;-23.54439926;-47.12390137;5,38;1;2020-05-27;82111983;2020;2021;tratada_cmsp
15921;35015921;HUMBERTO VICTORAZZO PROFESSOR;ARACARIGUAMA;CENTRO;ARACARIGUAMA;SAO ROQUE;Urbana;18147000;-23.4375;-47.06209946;5;1;2020-05-27;82407657;2020;2021;tratada_cmsp
15945;35015945;EUCLIDES MARIA BORBA;IBIUNA;VOTORANTIM;IBIUNA;SAO ROQUE;Rural;18150000;-23.64922905;-47.13264847;4,91;1;2020-05-27;124367207;2020;2021;tratada_cmsp
15957;35015957;LINO VIEIRA RUIVO;IBIUNA;PIAI;IBIUNA;SAO ROQUE;Rural;18150000;-23.75466919;-47.20774078;4,97;1;2020-05-27;85421014;2020;2021;tratada_cmsp
15970;35015970;LURDES PENNA CARMELO PROFESSORA;PARURU;PARURU;IBIUNA;SAO ROQUE;Rural;18150000;-23.69099998;-47.34091949;5,18;1;2020-05-27;107300923;2020;2021;tratada_cmsp
15982;35015982;ROQUE BASTOS PROFESSOR;IBIUNA;CENTRO;IBIUNA;SAO ROQUE;Urbana;18150000;-23.65299988;-47.21929932;5,06;1;2020-05-27;136998623;2020;2021;tratada_cmsp
1600;35001600;PLINIO BARRETO;AGUA RASA;BELENZINHO;SAO PAULO;LESTE 5;Urbana;3173010;-23.5544796;-46.58292007;5,32;1;2020-05-27;144089960;2020;2021;tratada_cmsp
16007;35016007;EPAMINONDAS DE OLIVEIRA PROFESSOR;SAO JOAO NOVO;SAO JOAO NOVO;SAO ROQUE;SAO ROQUE;Urbana;18140004;-23.54046059;-47.03512955;5,12;1;2020-05-27;32767221;2020;2021;tratada_cmsp
16020;35016020;HONORINA RIOS DE CARVALHO MELLO;ALUMINIO;JARDIM PROGRESSO;ALUMINIO;SAO ROQUE;Urbana;18125000;-23.5177002;-47.25790024;5,23;1;2020-05-27;65541740;2020;2021;tratada_cmsp
16044;35016044;MARIA ANGERAMI SCALAMANDRE;IBIUNA;JARDIM NOVA IBIUNA;IBIUNA;SAO ROQUE;Urbana;18150000;-23.65893936;-47.21342087;5,16;1;2020-05-27;95846199;2020;2021;tratada_cmsp
16056;35016056;LAURINDA VIEIRA PINTO PROFESSORA;IBIUNA;JARDIM NOVA IBIUNA;IBIUNA;SAO ROQUE;Urbana;18150000;-23.65970039;-47.21229935;4,91;1;2020-05-27;169801284;2020;2021;tratada_cmsp
16081;35016081;ALTINA JULIA DE OLIVEIRA PROFESSORA;MAIRINQUE;CENTRO;MAIRINQUE;SAO ROQUE;Urbana;18120000;-23.5496006;-47.18349838;5,19;1;2020-05-27;126403072;2020;2021;tratada_cmsp
16093;35016093;JOAQUIM IZIDORO MARINS PROFESSOR;SOROCABA;VILA ANGELICA;SOROCABA;SOROCABA;Urbana;18065400;-23.48150063;-47.48239899;5,44;1;2020-05-27;121620536;2020;2021;tratada_cmsp
16100;35016100;JOSE ODIN DE ARRUDA PROFESSOR;SOROCABA;JARDIM VERA CRUZ;SOROCABA;SOROCABA;Urbana;18050010;-23.51104927;-47.49235916;5,64;1;2020-05-27;104021957;2020;2021;tratada_cmsp
16111;35016111;GENESIO MACHADO PROFESSOR;SOROCABA;VILA SANTANA;SOROCABA;SOROCABA;Urbana;18080763;-23.48819923;-47.45819855;5,55;1;2020-05-27;144564645;2020;2021;tratada_cmsp
16135;35016135;EZEQUIEL MACHADO NASCIMENTO PROFESSOR;SOROCABA;JARDIM SANTA ROSALIA;SOROCABA;SOROCABA;Urbana;18090100;-23.48303986;-47.44340897;5,68;1;2020-05-27;73191314;2020;2021;tratada_cmsp
16147;35016147;PORTO SEGURO VISCONDE DE;SOROCABA;CENTRO;SOROCABA;SOROCABA;Urbana;18010320;-23.49959946;-47.45349884;5,63;1;2020-05-27;115443380;2020;2021;tratada_cmsp
16159;35016159;VERGUEIRO SENADOR;SOROCABA;VILA HORTENCIA;SOROCABA;SOROCABA;Urbana;18020266;-23.50320053;-47.4455986;5,59;1;2020-05-27;96313584;2020;2021;tratada_cmsp
16160;35016160;JULIO PRESTES DE ALBUQUERQUE DOUTOR;SOROCABA;CENTRO;SOROCABA;SOROCABA;Urbana;18035430;-23.5007;-47.46820068;5,54;1;2020-05-27;76150100;2020;2021;tratada_cmsp
16172;35016172;FRANCISCO CAMARGO CESAR;SOROCABA;LOPES DE OLIVEIRA;SOROCABA;SOROCABA;Urbana;18071286;-23.46484947;-47.5078392;5,18;1;2020-05-27;89155293;2020;2021;tratada_cmsp
16184;35016184;ALTAMIR GONCALVES PROFESSOR;SOROCABA;JARDIM DAS MAGNOLIAS;SOROCABA;SOROCABA;Urbana;18044560;-23.51099968;-47.47990036;5,88;1;2020-05-27;202465054;2020;2021;tratada_cmsp
16196;35016196;ACCACIO DE VASCONCELLOS CAMARGO PROFESSOR;SOROCABA;APARECIDINHA;SOROCABA;SOROCABA;Urbana;18087261;-23.44171906;-47.36793137;5,15;1;2020-05-27;75375502;2020;2021;tratada_cmsp
16202;35016202;FRANCISCO EUPHRASIO MONTEIRO;SOROCABA;VILA BARCELONA;SOROCABA;SOROCABA;Urbana;18025310;-23.51715851;-47.43988037;5,56;1;2020-05-27;119146800;2020;2021;tratada_cmsp
16214;35016214;HUMBERTO DE CAMPOS;SOROCABA;JARDIM ZULMIRA;SOROCABA;SOROCABA;Urbana;18061050;-23.5007;-47.48450089;5,24;1;2020-05-27;77582955;2020;2021;tratada_cmsp
16226;35016226;JOAO CLIMACO DE CAMARGO PIRES;SOROCABA;VILA FIORI;SOROCABA;SOROCABA;Urbana;18080440;-23.48340034;-47.46804047;5,2;1;2020-05-27;67822939;2020;2021;tratada_cmsp
1624;35001624;WOLNY CARVALHO RAMOS PROFESSOR;AGUA RASA;VILA REGENTE FEIJO;SAO PAULO;LESTE 5;Urbana;3344000;-23.56374931;-46.56983948;5,62;1;2020-05-27;239339594;2020;2021;tratada_cmsp
16248;35016248;BRIGADEIRO TOBIAS;SOROCABA;BRIGADEIRO TOBIAS;SOROCABA;SOROCABA;Urbana;18108000;-23.4326992;-47.36349869;5,23;1;2020-05-27;113294538;2020;2021;tratada_cmsp
16251;35016251;ARTHUR CYRILLO FREIRE DOUTOR;SOROCABA;VILA JARDINI;SOROCABA;SOROCABA;Urbana;18044000;-23.51350021;-47.47510147;5,57;1;2020-05-27;66152956;2020;2021;tratada_cmsp
16263;35016263;JOSE QUEVEDO PROFESSOR;SOROCABA;CAJURU DO SUL;SOROCABA;SOROCABA;Urbana;18105000;-23.39970016;-47.37879944;5,33;1;2020-05-27;285359959;2020;2021;tratada_cmsp
16275;35016275;MONSENHOR JOAO SOARES;SOROCABA;ALTOS DE IPANEMA;SOROCABA;SOROCABA;Urbana;18073123;-23.41425705;-47.51544189;5,28;1;2020-05-28;506459;2020;2021;tratada_cmsp
16287;35016287;MONTEIRO LOBATO;SOROCABA;PARQUE SANTA ISABEL;SOROCABA;SOROCABA;Urbana;18052280;-23.53665924;-47.4948616;5,13;1;2020-05-27;144073875;2020;2021;tratada_cmsp
16299;35016299;AGGEO PEREIRA DO AMARAL PROFESSOR;SOROCABA;ALEM PONTE;SOROCABA;SOROCABA;Urbana;18013230;-23.49349976;-47.43851852;5,71;1;2020-05-27;229359537;2020;2021;tratada_cmsp
16305;35016305;JOSE REGINATO PROFESSOR;SOROCABA;JARDIM SIMUS;SOROCABA;SOROCABA;Urbana;18055200;-23.50315094;-47.48917007;5,47;1;2020-05-27;54441997;2020;2021;tratada_cmsp
16317;35016317;JULIO BIERRENBACH LIMA PROFESSOR;SOROCABA;JARDIM SANTA ROSALIA;SOROCABA;SOROCABA;Urbana;18090030;-23.48789978;-47.4496994;5,92;1;2020-05-27;155323107;2020;2021;tratada_cmsp
16329;35016329;LAURO SANCHEZ PROFESSOR;SOROCABA;JARDIM NAIR;SOROCABA;SOROCABA;Urbana;18075240;-23.47604942;-47.47499084;5,42;1;2020-05-27;202848631;2020;2021;tratada_cmsp
16330;35016330;LUIZ GONZAGA DE CAMARGO FLEURY PROFESSOR;SOROCABA;JARDIM GUADALAJARA;SOROCABA;SOROCABA;Urbana;18045540;-23.52400017;-47.48609924;5,67;1;2020-05-27;173706630;2020;2021;tratada_cmsp
16366;35016366;ESCOLASTICA ROSA DE ALMEIDA PROFESSORA;SOROCABA;VILA HARO;SOROCABA;SOROCABA;Urbana;18015205;-23.50103951;-47.43597031;5,72;1;2020-05-27;45793146;2020;2021;tratada_cmsp
16378;35016378;OSSIS SALVESTRINI MENDES PROFESSORA;SOROCABA;VILA FIORI;SOROCABA;SOROCABA;Urbana;18075630;-23.47644997;-47.45909119;5,36;1;2020-05-27;82294675;2020;2021;tratada_cmsp
16385;35016385;ENEAS PROENCA DE ARRUDA PROFESSOR;SOROCABA;JARDIM MARIA DO CARMO;SOROCABA;SOROCABA;Urbana;18081200;-23.47590065;-47.44509888;5,67;1;2020-05-27;92835294;2020;2021;tratada_cmsp
16391;35016391;ANTONIO MIGUEL PEREIRA JUNIOR;SOROCABA;CENTRAL PARQUE SOROCABA;SOROCABA;SOROCABA;Urbana;18051100;-23.51650047;-47.50569916;5,72;1;2020-05-27;130189623;2020;2021;tratada_cmsp
164;35000164;PIO TELLES PEIXOTO PROFESSOR;JAGUARA;VILA JAGUARA;SAO PAULO;NORTE 1;Urbana;5118000;-23.51165962;-46.7487793;5,14;1;2020-05-27;61773166;2020;2021;tratada_cmsp
16408;35016408;ARQUIMINIO MARQUES DA SILVA PROFESSOR;SOROCABA;JARDIM PAULISTANO;SOROCABA;SOROCABA;Urbana;18040610;-23.50900078;-47.46369934;5,82;1;2020-05-27;3582374;2020;2021;tratada_cmsp
16412;35016412;LUIZ NOGUEIRA MARTINS SENADOR;SOROCABA;VILA CARVALHO;SOROCABA;SOROCABA;Urbana;18060035;-23.49169922;-47.46709824;5,71;1;2020-05-27;303264702;2020;2021;tratada_cmsp
16421;35016421;FRANCISCO COCCARO PROFESSOR;SOROCABA;EDEN;SOROCABA;SOROCABA;Urbana;18103060;-23.41736031;-47.41621017;5,58;1;2020-05-27;85960375;2020;2021;tratada_cmsp
16433;35016433;ANTONIO PADILHA;SOROCABA;CENTRO;SOROCABA;SOROCABA;Urbana;18035110;-23.50230026;-47.46220016;5,61;1;2020-05-27;193591312;2020;2021;tratada_cmsp
16445;35016445;EGILDO PASCHOALUCCI VEREADOR;PEREIRAS;CENTRO;PEREIRAS;BOTUCATU;Urbana;18580000;-23.07748985;-47.97270966;5,3;1;2020-05-27;99667917;2020;2021;tratada_cmsp
16469;35016469;PLINIO RODRIGUES DE MORAIS;TIETE;CENTRO;TIETE;ITU;Urbana;18530000;-23.10000801;-47.71688461;5,21;1;2020-05-27;252934499;2020;2021;tratada_cmsp
16494;35016494;ALTINA MAYNARDES ARAUJO PROFA;TATUI;BOQUEIRAO;TATUI;ITAPETININGA;Urbana;18270360;-23.35899925;-47.8506012;5,2;1;2020-05-27;106416354;2020;2021;tratada_cmsp
16512;35016512;ALDO ANGELINI;PORANGABA;JARDIM SANTO ANTONIO;PORANGABA;BOTUCATU;Urbana;18260100;-23.17747879;-48.11676407;5,2;1;2020-05-27;197351499;2020;2021;tratada_cmsp
